Station_Id_C,dt,PRS,PRS_Sea,PRS_Max,PRS_Min,WIN_S_Max,WIN_S_Inst_Max,WIN_D_INST_Max,WIN_D_Avg_2mi,WIN_S_Avg_2mi,WIN_D_S_Max,TEM,TEM_Max,TEM_Min,RHU,RHU_Min,PRE_1h,windpower,tigan,Station_Name,Country,Province,City,Cnty,Station_Id_d,Lat,Lon,Alti
58015,2022-08-08 16:00:00,998.6,1003.4,998.7,998.5,2.1,3.5,158,154,0.9,155,31.9,32.4,31.9,84,81,0.0,1,45.73,砀山,中国,安徽省,宿州市,砀山县,58015,34.4389,116.3397,42.1
58016,2022-08-08 16:00:00,999.9,1003.9,1000.2,999.8,1.2,1.8,104,183,0.7,124,30.9,31.1,30.7,83,81,0.0,1,41.61,萧县,中国,安徽省,宿州市,萧县,58016,34.1803,116.9628,34.9
58116,2022-08-08 16:00:00,1000.0,1003.8,1000.4,1000.0,1.5,2.1,132,131,1.2,123,30.9,31.0,30.7,85,85,0.0,1,42.34,淮北,中国,安徽省,淮北市,杜集区,58116,34.0333,116.8689,32.9
58012,2022-08-08 16:00:00,999.2,1004.0,999.2,999.1,0.8,1.1,97,999017,0.1,80,29.8,30.4,29.8,100,99,0.0,0,43.5,丰县,中国,江苏省,徐州市,丰县,58012,34.6719,116.6561,42.0
58013,2022-08-08 16:00:00,999.8,1004.0,1000.0,999.7,2.5,3.8,132,115,1.0,128,32.4,32.9,32.4,80,76,0.0,1,45.85,沛县,中国,江苏省,徐州市,沛县,58013,34.7533,116.9058,36.5
58026,2022-08-08 16:00:00,1001.4,1004.4,1001.7,1001.4,1.0,1.4,150,129,0.6,139,31.0,31.4,31.0,94,87,0.0,1,46.35,邳州,中国,江苏省,徐州市,邳州市,58026,34.3942,118.0189,25.7
58027,2022-08-08 16:00:00,999.3,1004.0,999.8,999.3,2.0,3.5,120,151,1.1,131,33.2,33.6,33.2,67,62,0.0,1,42.81,徐州,中国,江苏省,徐州市,市辖区,58027,34.2872,117.1586,41.2
58035,2022-08-08 16:00:00,1001.2,1004.6,1001.6,1001.1,1.2,2.1,165,126,0.8,142,31.1,31.3,31.1,85,83,0.0,1,43.09,新沂,中国,江苏省,徐州市,新沂市,58035,34.3319,118.3536,29.3
58036,2022-08-08 16:00:00,1000.9,1004.7,1001.3,1000.9,2.0,3.5,154,157,1.7,156,31.5,31.6,31.4,80,79,0.0,2,42.59,东海,中国,江苏省,连云港市,东海县,58036,34.5425,118.7136,32.9
58038,2022-08-08 16:00:00,1003.5,1004.8,1003.9,1003.5,1.2,1.9,133,135,1.0,125,31.6,31.7,31.5,78,78,0.0,1,42.15,沭阳,中国,江苏省,宿迁市,沭阳县,58038,34.0911,118.7836,10.4
58040,2022-08-08 16:00:00,1003.9,1004.6,1004.3,1003.9,2.0,3.9,179,193,1.0,185,32.6,33.0,32.6,78,75,0.0,1,45.67,赣榆,中国,江苏省,连云港市,赣榆区,58040,34.8564,119.1269,5.3
58041,2022-08-08 16:00:00,1001.7,1004.8,1002.3,1001.7,2.0,2.7,146,143,1.1,135,32.2,32.7,32.1,78,70,0.0,1,44.23,西连岛,中国,江苏省,连云港市,连云区,58041,34.7778,119.4425,26.2
58044,2022-08-08 16:00:00,1004.1,1004.8,1004.6,1004.1,1.2,1.7,72,72,1.3,75,31.2,31.7,31.2,87,85,0.0,1,44.26,连云港,中国,江苏省,连云港市,市辖区,58044,34.5489,119.2347,4.7
58045,2022-08-08 16:00:00,1004.3,1005.0,1004.7,1004.3,1.2,2.6,136,141,1.6,145,31.8,31.9,31.7,80,80,0.0,1,43.65,响水,中国,江苏省,盐城市,响水县,58045,34.1142,119.3606,4.4
58047,2022-08-08 16:00:00,1004.1,1004.8,1004.5,1004.1,1.2,2.0,137,114,0.8,154,32.1,32.6,32.1,80,75,0.0,1,44.73,灌云,中国,江苏省,连云港市,灌云县,58047,34.2575,119.2361,4.8
58048,2022-08-08 16:00:00,1003.9,1004.9,1004.2,1003.9,2.0,2.7,139,144,2.0,149,32.1,32.4,32.1,86,83,0.0,2,47.46,灌南,中国,江苏省,连云港市,灌南县,58048,34.0639,119.2928,8.0
58049,2022-08-08 16:00:00,1004.8,1005.4,1005.0,1004.8,1.6,4.5,175,189,1.1,148,32.0,32.6,32.0,73,72,0.0,1,41.53,滨海,中国,江苏省,盐城市,滨海县,58049,34.0164,119.8031,4.1
54709,2022-08-08 16:00:00,1003.1,1006.1,1003.2,1003.0,2.9,4.9,9,22,2.6,11,22.9,23.2,22.9,100,100,0.1,2,23.86,武城,中国,山东省,德州市,武城县,54709,37.2333,116.0667,24.8
54712,2022-08-08 16:00:00,1003.5,1005.8,1004.7,1003.4,3.1,4.3,8,20,2.9,29,23.2,23.5,23.2,100,100,1.8,2,24.19,临邑,中国,山东省,德州市,临邑县,54712,37.2,116.8167,18.5
54714,2022-08-08 16:00:00,1003.2,1006.3,1003.2,1003.0,2.9,4.8,39,36,2.0,46,22.6,22.8,22.6,100,100,2.1,2,23.53,德州,中国,山东省,德州市,德城区,54714,37.35,116.3333,25.4
54715,2022-08-08 16:00:00,1004.0,1006.2,1004.1,1003.8,3.9,6.0,57,51,3.6,58,22.4,22.8,22.4,95,95,1.5,2,23.18,陵城,中国,山东省,临沂市,兰陵县,54715,37.3167,116.5167,17.6
54716,2022-08-08 16:00:00,1005.0,1007.1,1005.8,1004.4,4.3,7.6,53,3,2.2,58,21.4,21.9,21.4,97,96,76.1,3,22.13,宁津,中国,山东省,德州市,宁津县,54716,37.6667,116.8,17.3
54722,2022-08-08 16:00:00,1005.9,1006.8,1006.3,1005.3,2.4,4.4,7,13,2.7,66,22.6,24.6,22.6,100,87,22.5,2,23.53,无棣,中国,山东省,滨州市,无棣县,54722,37.75,117.6333,6.8
54723,2022-08-08 16:00:00,1005.8,1007.1,1005.9,1005.2,2.9,5.7,68,23,2.2,83,22.5,24.8,22.5,91,77,5.0,2,23.18,阳信,中国,山东省,滨州市,阳信县,54723,37.65,117.5667,10.1
54724,2022-08-08 16:00:00,1004.4,1006.2,1005.2,1004.1,1.9,3.5,95,26,1.9,21,23.3,23.8,23.3,96,91,2.8,2,24.19,商河,中国,山东省,济南市,商河县,54724,37.3167,117.1333,14.8
54725,2022-08-08 16:00:00,1004.8,1006.3,1005.0,1004.6,2.8,5.5,83,32,1.8,79,23.3,24.0,23.3,96,88,0.3,2,24.19,惠民,中国,山东省,滨州市,惠民县,54725,37.5,117.5333,11.7
54726,2022-08-08 16:00:00,1004.9,1006.4,1005.6,1004.8,3.4,6.3,70,55,2.3,63,22.1,23.4,22.1,100,100,16.7,2,22.98,乐陵,中国,山东省,德州市,乐陵市,54726,37.7,117.1833,11.5
54727,2022-08-08 16:00:00,975.5,1005.3,976.3,975.2,3.6,5.1,175,195,0.5,168,25.1,25.5,25.0,94,88,2.4,1,26.12,章丘,中国,山东省,济南市,章丘区,54727,36.65,117.5167,263.0
54728,2022-08-08 16:00:00,1005.0,1006.4,1006.3,1005.0,3.0,6.4,56,69,2.8,70,22.2,23.9,22.2,99,87,24.1,2,23.06,庆云,中国,山东省,德州市,庆云县,54728,37.7667,117.35,10.5
54729,2022-08-08 16:00:00,1004.3,1005.8,1004.7,1004.3,2.0,3.6,50,66,1.8,95,24.1,24.1,24.0,90,88,0.0,2,24.92,高青,中国,山东省,淄博市,高青县,54729,37.1667,117.8667,11.5
54734,2022-08-08 16:00:00,1003.8,1006.0,1004.2,1003.8,2.6,4.4,90,68,1.7,70,23.9,23.9,23.8,91,89,0.0,1,24.72,滨州,中国,山东省,滨州市,滨城区,54734,37.35,118.0333,17.8
54736,2022-08-08 16:00:00,1005.2,1006.0,1005.7,1005.2,2.1,4.0,56,71,1.6,81,25.5,25.5,25.2,90,89,0.0,2,26.46,东营,中国,山东省,东营市,东营区,54736,37.4333,118.6667,6.0
54744,2022-08-08 16:00:00,1005.0,1006.1,1005.6,1005.0,2.5,3.9,54,82,2.1,71,24.1,24.1,23.9,90,89,0.0,2,24.92,垦利,中国,山东省,东营市,垦利区,54744,37.5833,118.55,8.5
54749,2022-08-08 16:00:00,999.7,1005.3,1000.1,999.7,2.3,3.9,94,97,1.9,85,27.5,27.6,27.5,84,83,0.0,2,31.39,莱州,中国,山东省,烟台市,莱州市,54749,37.1833,119.95,48.4
54751,2022-08-08 16:00:00,1001.9,1006.6,1001.9,1001.7,2.4,4.5,71,73,1.4,84,25.8,25.9,25.8,99,95,0.1,1,27.75,长岛,中国,山东省,烟台市,长岛县,54751,37.9392,120.7256,39.7
54752,2022-08-08 16:00:00,999.5,1006.6,999.5,999.4,2.2,3.6,92,92,1.2,90,25.8,25.8,25.7,92,91,0.0,2,27.58,蓬莱,中国,山东省,烟台市,蓬莱市,54752,37.8,120.7667,60.7
54753,2022-08-08 16:00:00,1005.7,1006.4,1005.9,1005.6,2.8,4.5,76,50,2.1,68,25.3,25.4,25.3,100,100,0.6,2,26.5,龙口,中国,山东省,烟台市,龙口市,54753,37.6333,120.3333,4.8
54755,2022-08-08 16:00:00,992.7,1006.3,993.0,992.6,1.5,2.2,43,236,0.8,41,25.7,25.7,25.7,94,94,0.0,1,27.36,招远,中国,山东省,烟台市,招远市,54755,37.3283,120.3869,117.8
54759,2022-08-08 16:00:00,982.7,1006.2,983.3,982.7,3.2,4.7,60,60,2.5,54,24.7,24.8,24.7,100,100,0.1,2,25.84,栖霞,中国,山东省,烟台市,栖霞市,54759,37.3247,120.8519,205.5
54764,2022-08-08 16:00:00,1000.1,1006.4,1000.5,1000.0,2.1,3.1,138,144,1.4,141,25.2,25.3,25.2,94,94,0.0,1,26.23,福山,中国,山东省,烟台市,福山区,54764,37.4833,121.2333,53.9
54765,2022-08-08 16:00:00,997.1,1006.6,997.5,997.0,2.3,3.8,38,999017,0.2,27,24.9,25.0,24.9,97,97,0.4,1,25.98,烟台,中国,山东省,烟台市,莱山区,54765,37.4833,121.4333,82.0
54776,2022-08-08 16:00:00,1000.9,1006.5,1001.2,1000.8,4.0,5.0,347,73,0.4,353,25.2,25.2,24.9,98,98,4.3,1,26.33,成山头,中国,山东省,威海市,荣成市,54776,37.4,122.7,47.7
54777,2022-08-08 16:00:00,993.2,1006.8,993.3,993.2,2.4,3.8,27,34,0.4,29,25.7,25.7,25.6,95,94,0.0,1,27.38,文登,中国,山东省,威海市,文登区,54777,37.2,122.0667,118.0
54802,2022-08-08 16:00:00,1001.8,1005.8,1001.8,1001.4,4.1,7.4,31,22,3.8,31,23.4,24.8,23.4,97,97,4.5,3,24.33,临清,中国,山东省,聊城市,临清市,54802,36.8167,115.7333,34.0
54806,2022-08-08 16:00:00,1001.1,1005.4,1001.1,1000.9,1.2,1.8,60,17,0.9,53,25.0,25.0,24.9,97,96,0.9,1,26.09,聊城,中国,山东省,聊城市,东昌府区,54806,36.3494,115.9761,36.1
54807,2022-08-08 16:00:00,1000.4,1005.3,1000.5,1000.1,3.1,4.4,346,352,2.6,347,25.6,26.0,25.6,100,100,0.4,2,27.14,阳谷,中国,山东省,聊城市,阳谷县,54807,36.15,115.7667,41.2
54808,2022-08-08 16:00:00,1001.1,1005.7,1001.1,1000.8,4.1,6.8,312,315,3.9,318,23.9,25.6,23.9,98,97,0.1,3,24.9,莘县,中国,山东省,聊城市,莘县,54808,36.2156,115.6267,38.7
54812,2022-08-08 16:00:00,1002.0,1005.0,1002.3,1002.0,1.8,2.2,14,15,1.6,10,25.3,25.3,25.0,100,100,1.2,1,26.5,齐河,中国,山东省,德州市,齐河县,54812,36.7333,116.7167,24.7
54814,2022-08-08 16:00:00,1001.6,1005.1,1001.8,1001.6,1.5,2.5,11,40,0.9,26,25.2,25.2,24.8,99,99,3.6,1,26.36,茌平,中国,山东省,聊城市,茌平县,54814,36.5333,116.25,29.7
54815,2022-08-08 16:00:00,1001.2,1004.9,1001.4,1001.1,1.5,2.4,357,333,0.9,10,25.2,25.2,25.2,99,98,1.9,1,26.36,东阿,中国,山东省,聊城市,东阿县,54815,36.3833,116.2667,31.4
54816,2022-08-08 16:00:00,993.5,1004.9,993.8,993.4,4.2,5.8,144,349,0.9,140,25.0,25.2,25.0,94,93,0.9,1,26.01,长清,中国,山东省,济南市,长清区,54816,36.5167,116.8,98.9
54818,2022-08-08 16:00:00,995.7,1004.9,995.9,995.7,1.8,2.7,356,2,1.3,346,26.1,26.1,26.0,96,94,2.9,2,28.56,平阴,中国,山东省,济南市,平阴县,54818,36.25,116.4167,79.9
54819,2022-08-08 16:00:00,991.6,1004.6,992.2,991.6,0.5,1.1,264,999017,0.2,278,24.7,24.7,24.3,97,97,1.2,0,25.76,肥城,中国,山东省,泰安市,肥城市,54819,36.1833,116.8,113.6
54821,2022-08-08 16:00:00,1002.8,1005.3,1004.4,1002.8,2.6,3.6,58,72,2.7,66,24.3,25.1,24.3,93,86,0.6,2,25.21,济阳,中国,山东省,济南市,济阳县,54821,37.0,117.2,20.4
54822,2022-08-08 16:00:00,1000.0,1005.6,1000.4,999.7,1.6,3.1,257,999017,0.1,87,25.9,26.0,25.8,100,97,0.2,1,28.09,邹平,中国,山东省,滨州市,邹平县,54822,36.8667,117.7333,47.4
54823,2022-08-08 16:00:00,985.7,1005.1,986.2,985.7,1.6,3.4,354,33,1.0,123,25.9,26.2,25.8,92,87,0.1,1,27.85,济南,中国,山东省,济南市,市中区,54823,36.6019,117.0081,170.3
54824,2022-08-08 16:00:00,994.4,1005.4,994.9,994.3,1.0,2.2,253,115,0.7,268,26.4,26.4,26.4,92,92,0.0,1,29.21,淄川,中国,山东省,淄博市,淄川区,54824,36.6333,117.95,95.0
54825,2022-08-08 16:00:00,982.6,1004.2,983.4,982.3,1.6,3.9,246,9,1.6,75,25.6,25.6,25.4,81,81,1.6,1,26.33,博山,中国,山东省,淄博市,博山区,54825,36.5167,117.85,189.7
54826,2022-08-08 16:00:00,844.5,1006.9,845.1,844.4,6.7,14.8,220,218,7.8,220,21.4,21.8,20.7,99,99,0.5,4,22.18,泰山,中国,山东省,泰安市,泰山区,54826,36.25,117.1,1533.7
54827,2022-08-08 16:00:00,990.4,1005.1,991.1,990.4,2.1,3.4,63,98,1.0,95,25.1,25.1,25.0,96,95,0.2,1,26.17,泰安,中国,山东省,泰安市,泰山区,54827,36.1667,117.15,128.6
54828,2022-08-08 16:00:00,979.2,1005.1,979.9,979.2,3.7,5.0,339,72,1.4,321,24.9,27.4,24.9,92,87,0.0,2,25.85,莱芜,中国,山东省,莱芜市, ,54828,36.2333,117.6833,229.3
54829,2022-08-08 16:00:00,995.8,1005.7,996.1,995.6,1.1,1.9,232,256,1.0,243,25.8,25.8,25.7,94,93,0.0,1,27.63,周村,中国,山东省,淄博市,周村区,54829,36.7667,117.8667,85.7
54830,2022-08-08 16:00:00,1001.2,1005.3,1001.8,1001.2,2.2,4.7,95,89,0.9,93,26.5,26.5,26.4,89,88,0.0,1,29.28,淄博,中国,山东省,淄博市,张店区,54830,36.8167,117.9333,34.4
54831,2022-08-08 16:00:00,993.4,1005.2,993.8,993.3,1.2,1.7,163,152,0.4,181,26.3,26.4,26.3,91,91,0.0,1,28.87,青州,中国,山东省,潍坊市,青州市,54831,36.65,118.5,102.5
54832,2022-08-08 16:00:00,1002.8,1005.6,1003.3,1002.5,1.2,2.5,56,59,1.0,57,26.8,26.8,26.6,93,93,0.0,1,31.05,寿光,中国,山东省,潍坊市,寿光市,54832,36.8631,118.7953,23.4
54833,2022-08-08 16:00:00,1003.6,1005.5,1004.1,1003.5,0.0,0.0,999017,999017,0.0,999017,25.5,25.6,25.5,96,95,0.0,0,26.61,桓台,中国,山东省,淄博市,桓台县,54833,36.9667,118.0833,15.1
54834,2022-08-08 16:00:00,999.9,1005.3,1000.3,999.9,1.3,2.1,60,87,1.3,110,26.0,26.1,25.9,92,91,0.0,1,28.11,临淄,中国,山东省,淄博市,临淄区,54834,36.8667,118.2833,46.3
54835,2022-08-08 16:00:00,988.7,1005.8,989.1,988.5,1.8,2.7,355,98,0.5,18,26.2,26.3,26.1,91,91,0.0,1,28.6,临朐,中国,山东省,潍坊市,临朐县,54835,36.4733,118.5606,149.5
54836,2022-08-08 16:00:00,971.6,1005.8,971.9,971.6,1.0,1.4,126,66,0.3,124,26.0,26.0,25.6,93,93,0.0,1,28.15,沂源,中国,山东省,淄博市,沂源县,54836,36.1833,118.1667,305.1
54837,2022-08-08 16:00:00,996.5,1005.6,996.6,996.3,1.5,3.2,329,999017,0.0,302,26.7,26.8,26.7,96,95,0.0,0,31.26,昌乐,中国,山东省,潍坊市,昌乐县,54837,36.6797,118.8361,78.8
54841,2022-08-08 16:00:00,1002.8,1005.6,1003.1,1002.8,1.3,2.4,58,318,0.4,48,27.0,27.0,27.0,99,97,0.0,1,32.72,昌邑,中国,山东省,潍坊市,昌邑市,54841,36.8617,119.4181,23.5
54842,2022-08-08 16:00:00,998.2,1005.4,998.8,998.2,3.3,5.0,74,80,3.4,82,27.3,27.4,27.3,93,92,0.0,2,32.51,平度,中国,山东省,青岛市,平度市,54842,36.7833,120.0,62.2
54843,2022-08-08 16:00:00,1002.7,1005.4,1003.2,1002.7,1.4,2.1,29,51,0.9,21,27.4,27.4,27.3,94,93,0.0,1,33.01,潍坊,中国,山东省,潍坊市,寒亭区,54843,36.75,119.2,22.2
54844,2022-08-08 16:00:00,997.7,1004.9,999.1,997.7,3.3,6.9,211,194,1.0,165,26.3,27.2,26.3,97,97,14.1,1,29.22,安丘,中国,山东省,潍坊市,安丘市,54844,36.4167,119.1833,62.7
54846,2022-08-08 16:00:00,999.5,1005.4,999.9,999.4,2.5,4.4,84,127,0.7,92,27.3,27.5,27.3,93,90,0.0,1,32.51,高密,中国,山东省,潍坊市,高密市,54846,36.3853,119.7361,51.5
54848,2022-08-08 16:00:00,992.9,1005.3,993.2,992.9,1.0,2.6,97,86,1.3,91,27.1,27.1,27.0,96,96,0.0,1,32.48,诸城,中国,山东省,潍坊市,诸城市,54848,35.9633,119.4847,109.0
54849,2022-08-08 16:00:00,995.6,1005.2,996.3,995.4,3.6,4.6,117,110,3.0,117,27.1,27.1,26.9,98,98,0.0,2,32.85,胶州,中国,山东省,青岛市,胶州市,54849,36.2167,120.0333,84.4
54851,2022-08-08 16:00:00,997.3,1006.2,997.5,997.2,1.8,3.1,68,100,0.8,67,26.3,26.3,26.3,95,95,0.0,1,29.11,莱西,中国,山东省,青岛市,莱西市,54851,36.9,120.5667,76.9
54852,2022-08-08 16:00:00,1001.1,1006.0,1001.5,1001.1,2.1,4.2,79,107,1.5,63,27.1,27.1,27.1,91,91,0.0,2,31.55,莱阳,中国,山东省,烟台市,莱阳市,54852,36.9667,120.7167,41.6
54853,2022-08-08 16:00:00,999.1,1005.3,999.5,999.1,2.6,3.1,309,97,2.2,308,28.1,28.5,28.0,94,89,0.0,1,35.26,崂山,中国,山东省,青岛市,李沧区,54853,36.1333,120.5167,54.0
54855,2022-08-08 16:00:00,1000.1,1005.6,1000.8,1000.1,2.8,4.4,82,74,2.5,73,27.5,27.5,26.6,99,98,4.5,2,34.38,即墨,中国,山东省,青岛市,即墨区,54855,36.4,120.3833,47.8
54857,2022-08-08 16:00:00,997.0,1005.7,997.2,996.8,3.8,9.2,184,198,3.9,199,28.0,29.2,28.0,90,90,0.0,3,34.0,青岛,中国,山东省,青岛市,市南区,54857,36.0667,120.3333,76.0
54861,2022-08-08 16:00:00,1001.1,1006.4,1001.5,1001.1,1.2,1.6,20,38,0.9,13,26.4,26.5,26.4,93,93,0.0,1,29.27,乳山,中国,山东省,威海市,乳山市,54861,36.9333,121.5333,45.4
54863,2022-08-08 16:00:00,1001.3,1006.1,1001.7,1001.3,2.8,4.4,73,43,1.7,62,26.6,27.0,26.6,95,92,3.7,2,30.02,海阳,中国,山东省,烟台市,海阳市,54863,36.775,121.1783,40.9
54871,2022-08-08 16:00:00,1005.5,1006.8,1005.6,1005.4,2.2,3.5,28,7,1.4,11,25.5,25.7,25.5,100,100,0.7,1,26.83,石岛,中国,山东省,威海市,荣成市,54871,36.9333,122.4833,9.8
54904,2022-08-08 16:00:00,999.7,1005.5,999.7,999.6,4.5,6.6,354,356,3.9,345,25.5,26.2,25.5,91,90,0.0,3,26.48,鄄城,中国,山东省,菏泽市,鄄城县,54904,35.5833,115.5167,50.1
54905,2022-08-08 16:00:00,999.7,1005.1,999.8,999.6,2.8,5.0,351,339,2.5,344,27.8,28.7,27.8,89,87,0.0,2,33.18,郓城,中国,山东省,菏泽市,郓城县,54905,35.5833,115.9333,46.2
54906,2022-08-08 16:00:00,999.2,1005.1,999.2,998.8,4.2,7.2,349,335,5.0,329,26.3,28.0,26.3,93,90,0.0,3,28.99,菏泽,中国,山东省,菏泽市,牡丹区,54906,35.3167,115.5333,50.7
54907,2022-08-08 16:00:00,999.6,1003.6,999.7,999.5,1.3,2.1,115,160,1.4,140,30.9,31.2,30.9,85,84,0.0,1,42.34,鱼台,中国,山东省,济宁市,鱼台县,54907,34.9833,116.65,34.3
54908,2022-08-08 16:00:00,998.6,1005.2,998.7,998.1,4.6,8.2,352,350,4.7,358,25.2,26.0,25.2,91,91,0.0,2,26.15,东明,中国,山东省,菏泽市,东明县,54908,35.2667,115.1,57.3
54909,2022-08-08 16:00:00,998.8,1004.7,998.8,998.4,3.6,6.0,357,354,2.2,356,28.6,29.3,28.6,90,88,0.0,2,35.9,定陶,中国,山东省,菏泽市,定陶区,54909,35.0833,115.5167,51.5
54910,2022-08-08 16:00:00,1000.2,1005.0,1000.3,999.8,2.8,4.2,321,308,2.5,284,27.2,27.8,27.2,100,96,0.0,2,33.57,梁山,中国,山东省,济宁市,梁山县,54910,35.8125,116.0533,40.9
54911,2022-08-08 16:00:00,999.4,1004.5,999.7,999.4,1.1,1.8,101,999017,0.0,74,26.1,26.1,25.9,96,94,0.3,0,28.56,东平,中国,山东省,泰安市,东平县,54911,35.9333,116.4,44.0
54912,2022-08-08 16:00:00,999.6,1004.5,999.8,999.6,2.5,3.8,9,20,2.3,28,25.6,26.4,25.6,95,94,0.6,2,27.1,汶上,中国,山东省,济宁市,汶上县,54912,35.7667,116.5,41.8
54913,2022-08-08 16:00:00,996.6,1004.4,997.1,996.6,3.5,4.6,359,327,2.2,359,26.3,26.9,26.3,87,84,0.0,2,28.64,宁阳,中国,山东省,泰安市,宁阳县,54913,35.7953,116.8067,67.6
54914,2022-08-08 16:00:00,999.9,1004.6,999.9,999.7,2.8,4.3,17,20,1.9,17,28.2,29.0,28.2,95,93,0.0,2,35.84,巨野,中国,山东省,菏泽市,巨野县,54914,35.4167,116.0833,40.6
54915,2022-08-08 16:00:00,999.5,1003.4,999.6,999.4,2.0,4.0,17,355,1.6,360,29.4,30.4,29.4,87,85,0.0,2,37.72,济宁,中国,山东省,济宁市,任城区,54915,35.4411,116.6014,33.3
54916,2022-08-08 16:00:00,998.3,1003.3,998.5,998.2,3.1,4.7,347,343,3.4,349,29.8,29.8,29.7,88,88,0.0,2,39.4,兖州,中国,山东省,济宁市,兖州区,54916,35.5333,116.8333,43.3
54917,2022-08-08 16:00:00,999.7,1003.9,999.7,999.5,2.8,3.6,312,329,2.3,311,29.7,30.1,29.5,92,90,0.0,2,40.33,金乡,中国,山东省,济宁市,金乡县,54917,35.1333,116.3333,35.8
54918,2022-08-08 16:00:00,996.9,1004.0,997.2,996.9,1.9,3.4,50,359,1.4,16,29.6,30.8,29.6,83,82,0.0,2,37.25,曲阜,中国,山东省,济宁市,曲阜市,54918,35.6,116.9733,62.3
54919,2022-08-08 16:00:00,993.6,1003.8,994.1,993.6,0.8,1.7,102,173,0.7,76,31.0,31.3,31.0,77,76,0.0,1,39.84,邹城,中国,山东省,济宁市,邹城市,54919,35.3667,116.9833,89.8
54920,2022-08-08 16:00:00,991.8,1004.3,992.2,991.8,2.3,4.6,62,78,2.0,38,28.4,30.2,28.4,83,81,0.0,2,33.67,泗水,中国,山东省,济宁市,泗水县,54920,35.65,117.2833,110.4
54921,2022-08-08 16:00:00,1000.1,1004.4,1000.2,999.9,2.6,4.5,20,357,1.0,337,27.7,29.0,27.7,91,86,0.0,1,33.31,嘉祥,中国,山东省,济宁市,嘉祥县,54921,35.4333,116.2833,37.1
54922,2022-08-08 16:00:00,981.8,1005.0,981.9,981.6,2.7,4.2,335,339,1.4,330,28.3,28.3,27.6,89,89,0.0,1,34.7,新泰,中国,山东省,泰安市,新泰市,54922,35.8667,117.75,206.0
54923,2022-08-08 16:00:00,972.6,1004.6,973.0,972.6,4.0,4.9,76,90,2.9,81,27.7,28.8,27.7,97,92,0.1,2,34.62,蒙阴,中国,山东省,临沂市,蒙阴县,54923,35.7333,117.95,286.5
54925,2022-08-08 16:00:00,986.2,1004.3,986.6,986.2,2.4,3.3,121,128,2.2,122,29.1,29.6,29.1,100,100,0.0,2,40.6,平邑,中国,山东省,临沂市,平邑县,54925,35.5,117.6833,161.2
54927,2022-08-08 16:00:00,995.1,1003.6,995.5,995.1,1.3,1.6,42,110,0.6,52,30.0,30.5,30.0,87,83,0.0,1,39.78,滕州,中国,山东省,枣庄市,滕州市,54927,35.1,117.2,74.9
54929,2022-08-08 16:00:00,986.3,1004.6,986.6,986.3,2.2,3.9,128,116,1.7,118,29.6,30.2,29.5,85,83,0.0,2,37.8,费县,中国,山东省,临沂市,费县,54929,35.2667,117.9667,121.2
54932,2022-08-08 16:00:00,984.0,1005.3,984.4,983.9,3.7,4.9,357,24,1.5,328,25.8,27.7,25.8,87,82,0.3,2,27.46,沂水,中国,山东省,临沂市,沂水县,54932,35.7667,118.65,186.7
54935,2022-08-08 16:00:00,991.6,1005.1,991.9,991.5,2.2,3.9,73,42,1.5,75,29.4,29.6,29.4,83,82,0.0,2,36.62,沂南,中国,山东省,临沂市,沂南县,54935,35.5333,118.4333,119.4
54936,2022-08-08 16:00:00,993.1,1005.1,993.3,993.0,2.3,4.1,40,1,2.4,352,27.9,28.3,27.8,100,99,0.0,2,36.02,莒县,中国,山东省,日照市,莒县,54936,35.5667,118.8333,107.4
54938,2022-08-08 16:00:00,990.8,1004.8,991.1,990.8,3.0,4.1,42,17,3.2,53,29.5,30.1,29.5,82,82,0.0,2,36.68,临沂,中国,山东省,临沂市,兰山区,54938,35.25,118.4167,124.0
54939,2022-08-08 16:00:00,992.0,1004.8,992.3,992.0,1.7,2.9,141,143,1.9,145,30.9,31.3,30.9,85,83,0.0,2,42.34,莒南,中国,山东省,临沂市,莒南县,54939,35.1667,118.8167,113.8
54940,2022-08-08 16:00:00,988.6,1005.3,988.9,988.4,1.3,2.9,78,999017,0.0,4,27.1,27.6,27.1,98,96,3.7,0,32.85,五莲,中国,山东省,日照市,五莲县,54940,35.75,119.2,148.2
54943,2022-08-08 16:00:00,1004.2,1005.0,1005.5,1004.2,6.2,9.1,188,344,1.7,188,26.5,27.7,26.5,100,95,2.5,2,30.08,黄岛,中国,山东省,青岛市,黄岛区,54943,35.8333,120.0333,5.7
54945,2022-08-08 16:00:00,997.6,1005.0,998.0,997.6,1.2,1.6,58,27,1.4,28,29.2,29.7,29.2,96,93,0.0,1,39.73,日照,中国,山东省,日照市,东港区,54945,35.4667,119.55,64.4
58002,2022-08-08 16:00:00,998.8,1004.4,998.8,998.5,1.9,5.2,355,13,1.1,351,29.3,30.1,29.3,97,96,0.0,1,40.43,曹县,中国,山东省,菏泽市,曹县,58002,34.85,115.5833,49.0
58003,2022-08-08 16:00:00,999.0,1004.2,999.0,998.8,3.0,5.4,357,339,3.2,338,30.1,31.5,30.1,88,84,0.0,2,40.47,成武,中国,山东省,菏泽市,成武县,58003,34.95,115.8833,45.4
58011,2022-08-08 16:00:00,998.5,1003.8,998.5,998.3,1.4,3.0,179,150,1.3,146,32.1,32.2,32.0,72,72,0.0,1,41.46,单县,中国,山东省,菏泽市,单县,58011,34.8,116.0667,46.2
58020,2022-08-08 16:00:00,999.9,1004.0,1000.3,999.9,2.1,3.3,110,118,1.2,109,30.5,30.6,30.1,85,84,0.0,1,40.89,微山,中国,山东省,济宁市,微山县,58020,34.7681,117.1403,35.5
58021,2022-08-08 16:00:00,994.9,1004.0,995.2,994.8,2.3,3.5,155,150,2.3,145,31.8,32.0,31.6,71,71,0.0,2,40.18,薛城,中国,山东省,枣庄市,薛城区,58021,34.7833,117.2833,80.5
58022,2022-08-08 16:00:00,995.0,1004.5,995.3,994.9,1.0,1.4,90,999017,0.0,92,29.0,29.3,29.0,90,89,0.0,0,37.23,峄城,中国,山东省,枣庄市,峄城区,58022,34.7667,117.4833,83.4
58024,2022-08-08 16:00:00,995.7,1004.5,996.1,995.7,1.3,2.2,64,65,1.7,60,30.0,30.0,29.7,78,78,0.0,1,37.11,枣庄,中国,山东省,枣庄市,市中区,58024,34.8667,117.5833,77.7
58025,2022-08-08 16:00:00,1000.9,1004.3,1001.3,1000.9,0.4,1.0,60,999017,0.0,43,29.2,29.5,29.2,92,90,0.0,0,38.5,台儿庄,中国,山东省,枣庄市,台儿庄区,58025,34.6,117.7167,29.3
58030,2022-08-08 16:00:00,999.4,1004.5,999.7,999.4,0.7,1.2,47,8,0.8,28,30.2,30.7,30.2,90,85,0.0,1,41.52,兰陵,中国,山东省,临沂市,兰陵县,58030,34.8833,118.0167,44.5
58032,2022-08-08 16:00:00,994.6,1004.8,994.9,994.6,2.5,3.7,165,165,2.2,166,31.0,31.5,31.0,80,78,0.0,2,40.88,临沭,中国,山东省,临沂市,临沭县,58032,34.95,118.65,90.1
53688,2022-08-08 16:00:00,997.5,1009.2,997.5,997.1,2.5,4.7,307,306,3.2,316,23.1,23.6,23.1,78,77,0.0,2,23.5,行唐,中国,河北省,石家庄市,行唐县,53688,38.4186,114.5464,100.3
53689,2022-08-08 16:00:00,1003.8,1008.8,1004.0,1003.7,2.6,6.1,37,47,2.0,36,22.8,23.3,22.8,77,77,0.0,2,23.15,晋州,中国,河北省,石家庄市,晋州市,53689,38.0167,115.0667,42.4
53691,2022-08-08 16:00:00,1001.0,1009.3,1001.1,1000.6,2.5,5.0,306,291,2.0,297,22.9,22.9,22.8,85,84,0.0,2,23.47,正定,中国,河北省,石家庄市,正定县,53691,38.15,114.5667,71.0
53695,2022-08-08 16:00:00,1001.4,1009.0,1001.4,1001.0,2.0,3.4,18,46,0.8,16,24.4,24.6,24.4,66,64,0.0,1,24.62,新乐,中国,河北省,石家庄市,新乐市,53695,38.35,114.6833,70.8
53697,2022-08-08 16:00:00,1002.7,1009.0,1002.7,1002.2,0.5,1.3,282,360,0.3,329,23.0,23.1,23.0,90,89,0.0,1,23.71,藁城,中国,河北省,石家庄市,藁城区,53697,38.0333,114.8333,53.5
53699,2022-08-08 16:00:00,1003.1,1008.8,1003.2,1002.8,2.7,4.2,29,70,0.6,5,23.8,24.3,23.8,80,72,0.0,1,24.32,无极,中国,河北省,石家庄市,无极县,53699,38.1833,114.95,45.4
53773,2022-08-08 16:00:00,999.5,1007.1,999.6,999.4,7.6,12.6,356,357,5.3,3,23.5,23.9,23.5,86,86,0.0,3,24.15,临漳,中国,河北省,邯郸市,临漳县,53773,36.2986,114.595,65.5
53784,2022-08-08 16:00:00,1004.0,1008.6,1004.1,1003.9,1.5,3.4,10,16,2.0,42,23.1,23.4,23.1,91,90,0.0,1,23.84,赵县,中国,河北省,石家庄市,赵县,53784,37.75,114.7833,38.5
53785,2022-08-08 16:00:00,1004.0,1008.2,1004.3,1003.9,2.2,3.7,343,344,2.2,2,22.6,22.8,22.6,99,97,0.0,2,23.5,柏乡,中国,河北省,邢台市,柏乡县,53785,37.5167,114.6667,35.0
53789,2022-08-08 16:00:00,1002.7,1008.9,1002.7,1002.3,1.9,3.7,311,49,0.8,315,23.7,23.7,23.6,83,81,0.0,1,24.29,栾城,中国,河北省,石家庄市,栾城区,53789,37.8833,114.6333,52.9
53790,2022-08-08 16:00:00,1002.8,1008.1,1003.0,1002.8,3.4,5.7,336,345,3.4,343,22.8,22.8,22.6,84,84,0.0,2,23.33,高邑,中国,河北省,石家庄市,高邑县,53790,37.6347,114.6078,44.5
53794,2022-08-08 16:00:00,1004.5,1008.2,1005.1,1004.4,4.2,6.0,22,1,3.1,13,21.9,22.5,21.9,86,78,0.0,2,22.39,隆尧,中国,河北省,邢台市,隆尧县,53794,37.3903,114.7842,31.0
53796,2022-08-08 16:00:00,1004.9,1008.6,1004.9,1004.5,4.6,8.3,39,27,1.7,37,22.6,22.8,22.5,84,81,0.0,2,23.11,宁晋,中国,河北省,邢台市,宁晋县,53796,37.6178,114.8914,30.6
53799,2022-08-08 16:00:00,1005.0,1008.1,1005.0,1004.6,5.9,9.8,11,11,5.4,10,20.9,21.9,20.9,90,89,0.0,3,21.4,巨鹿,中国,河北省,邢台市,巨鹿县,53799,37.2378,114.9989,25.9
53883,2022-08-08 16:00:00,1003.2,1007.6,1003.3,1002.9,4.5,8.1,318,18,4.2,12,22.1,22.8,22.1,92,91,0.0,3,22.77,任县,中国,河北省,邢台市,任县,53883,37.1333,114.7,36.5
53891,2022-08-08 16:00:00,1002.1,1007.6,1002.2,1001.7,6.2,11.9,6,24,3.3,10,23.2,23.5,23.2,80,80,0.0,3,23.66,南和,中国,河北省,邢台市,南和县,53891,37.0167,114.6833,43.0
53893,2022-08-08 16:00:00,1002.7,1007.2,1003.1,1002.5,7.2,10.4,340,349,6.2,343,22.2,22.3,22.2,100,100,0.0,4,23.09,曲周,中国,河北省,邯郸市,曲周县,53893,36.7889,115.005,37.9
53896,2022-08-08 16:00:00,1000.9,1007.0,1001.1,1000.7,3.7,7.7,355,5,3.1,2,23.0,23.1,23.0,92,92,0.0,2,23.76,魏县,中国,河北省,邯郸市,魏县,53896,36.3278,114.9494,51.6
53899,2022-08-08 16:00:00,1001.3,1007.0,1001.6,1001.3,4.3,7.2,1,354,3.4,357,22.5,22.7,22.5,88,88,0.0,2,23.1,广平,中国,河北省,邯郸市,广平县,53899,36.4833,114.9667,48.5
53980,2022-08-08 16:00:00,1001.2,1007.1,1001.6,1001.2,5.1,9.0,353,354,3.5,359,23.1,23.1,23.0,87,86,0.0,2,23.74,肥乡,中国,河北省,邯郸市,肥乡区,53980,36.55,114.8,50.2
53996,2022-08-08 16:00:00,1000.5,1007.3,1000.8,1000.4,6.6,10.4,357,354,3.2,5,23.3,23.5,23.2,86,83,0.0,3,23.93,成安,中国,河北省,邯郸市,成安县,53996,36.45,114.65,57.9
54604,2022-08-08 16:00:00,1004.9,1008.6,1005.1,1004.8,1.9,3.7,34,61,1.3,7,23.9,24.3,23.8,71,70,0.0,2,24.2,安国,中国,河北省,保定市,安国市,54604,38.4047,115.2919,31.0
54606,2022-08-08 16:00:00,1006.4,1008.6,1006.4,1005.9,4.0,6.3,18,356,3.0,12,23.1,23.5,23.1,82,73,0.0,2,23.61,饶阳,中国,河北省,衡水市,饶阳县,54606,38.2231,115.7431,17.9
54608,2022-08-08 16:00:00,1005.3,1008.4,1005.6,1005.2,2.6,5.6,46,339,2.7,43,22.6,23.7,22.6,84,68,0.4,2,23.11,深州,中国,河北省,衡水市,深州市,54608,37.9903,115.5442,25.5
54609,2022-08-08 16:00:00,1006.2,1008.9,1006.4,1005.9,1.8,3.3,63,329,1.3,42,23.4,24.1,23.4,83,73,0.5,1,23.96,安平,中国,河北省,衡水市,安平县,54609,38.2306,115.5869,22.4
54614,2022-08-08 16:00:00,1007.1,1008.5,1007.2,1006.8,3.1,6.7,33,12,2.3,18,22.1,24.1,22.1,73,64,0.0,2,22.27,河间,中国,河北省,沧州市,河间市,54614,38.4197,116.0561,10.9
54616,2022-08-08 16:00:00,1007.3,1008.4,1007.3,1007.0,1.8,3.2,27,9,1.3,31,23.9,24.5,23.9,66,61,0.0,1,24.07,沧州,中国,河北省,沧州市,运河区,54616,38.35,116.85,8.0
54617,2022-08-08 16:00:00,1006.5,1008.2,1006.7,1006.2,3.8,5.3,22,18,1.6,22,23.2,23.2,23.0,83,76,0.0,2,23.74,献县,中国,河北省,沧州市,献县,54617,38.205,116.1706,13.3
54618,2022-08-08 16:00:00,1006.3,1008.0,1006.5,1006.2,3.7,6.8,33,40,3.3,56,22.5,23.9,22.5,79,76,0.4,3,22.87,泊头,中国,河北省,沧州市,泊头市,54618,38.0833,116.55,13.2
54620,2022-08-08 16:00:00,1006.4,1008.9,1006.5,1005.9,2.8,5.1,66,83,3.1,77,24.5,24.8,24.5,62,61,0.0,2,24.62,蠡县,中国,河北省,保定市,蠡县,54620,38.4833,115.5667,18.5
54621,2022-08-08 16:00:00,1004.2,1008.7,1004.6,1004.2,2.5,5.1,116,119,1.2,118,23.1,23.8,23.1,72,67,0.0,2,23.35,深泽,中国,河北省,石家庄市,深泽县,54621,38.1833,115.1833,38.1
54624,2022-08-08 16:00:00,1007.3,1008.0,1007.4,1006.9,2.7,4.5,45,37,2.0,48,24.3,25.3,24.3,76,67,0.0,2,24.77,黄骅,中国,河北省,沧州市,黄骅市,54624,38.4081,117.3214,4.5
54626,2022-08-08 16:00:00,1007.6,1009.3,1007.6,1006.9,3.3,7.6,37,13,2.8,42,22.5,24.8,22.5,71,56,0.4,2,22.66,肃宁,中国,河北省,沧州市,肃宁县,54626,38.4167,115.8167,13.9
54627,2022-08-08 16:00:00,1006.4,1007.5,1006.4,1006.1,5.4,9.5,60,56,3.8,58,22.9,24.6,22.9,83,78,3.0,3,23.41,盐山,中国,河北省,沧州市,盐山县,54627,38.0333,117.2333,8.2
54628,2022-08-08 16:00:00,1006.4,1007.1,1006.7,1006.3,4.3,6.0,51,55,3.7,60,23.3,24.8,23.3,88,76,1.7,3,23.98,海兴,中国,河北省,沧州市,海兴县,54628,38.0839,117.4136,5.0
54631,2022-08-08 16:00:00,1003.7,1007.5,1003.7,1003.5,4.3,8.4,352,3,3.6,350,20.8,21.5,20.8,92,91,0.0,3,21.34,广宗,中国,河北省,邢台市,广宗县,54631,37.0939,115.1314,31.4
54632,2022-08-08 16:00:00,1003.5,1007.6,1003.5,1003.3,3.3,7.8,354,254,1.2,358,21.4,21.7,21.4,99,99,0.0,2,22.18,平乡,中国,河北省,邢台市,平乡县,54632,37.0667,115.0333,34.0
54633,2022-08-08 16:00:00,1004.7,1007.9,1004.8,1004.6,4.7,7.7,360,1,3.4,356,19.9,20.4,19.9,100,100,1.8,3,20.56,新河,中国,河北省,邢台市,新河县,54633,37.5081,115.2706,26.1
54640,2022-08-08 16:00:00,1002.9,1007.3,1003.3,1002.7,4.0,8.4,359,4,3.6,347,22.6,22.7,22.6,88,86,0.0,3,23.21,鸡泽,中国,河北省,邯郸市,鸡泽县,54640,36.8903,114.8728,36.6
54644,2022-08-08 16:00:00,1006.6,1007.9,1006.7,1006.0,2.0,3.4,77,37,1.3,54,23.3,24.6,23.3,90,80,0.7,1,24.04,孟村,中国,河北省,沧州市,孟村回族自治县,54644,38.0555,117.1239,10.5
54700,2022-08-08 16:00:00,1005.8,1007.8,1006.2,1005.8,3.5,5.5,33,25,2.6,33,23.3,23.5,23.1,69,66,0.0,2,23.49,武强,中国,河北省,衡水市,武强县,54700,38.0333,115.9333,16.2
54701,2022-08-08 16:00:00,1004.0,1008.3,1004.9,1004.0,1.2,4.1,38,350,1.0,110,21.7,22.8,21.7,86,81,1.7,1,22.17,辛集,中国,河北省,石家庄市,辛集市,54701,37.9333,115.2,35.9
54702,2022-08-08 16:00:00,1005.1,1007.6,1005.4,1005.1,2.5,5.4,353,7,2.0,6,20.7,21.8,20.7,91,86,8.0,2,21.2,衡水,中国,河北省,衡水市,桃城区,54702,37.7333,115.7,20.7
54703,2022-08-08 16:00:00,1005.1,1007.6,1005.6,1005.1,3.5,5.7,16,9,3.3,14,20.8,22.0,20.8,95,89,1.2,3,21.42,武邑,中国,河北省,衡水市,武邑县,54703,37.7858,115.9044,20.7
54704,2022-08-08 16:00:00,1004.6,1007.6,1004.6,1004.4,4.1,8.7,351,348,3.8,344,20.4,20.6,20.4,97,97,0.9,3,21.03,冀州,中国,河北省,衡水市,冀州区,54704,37.5122,115.5614,24.8
54705,2022-08-08 16:00:00,1004.5,1007.8,1004.6,1004.3,3.3,6.6,345,357,2.3,351,20.3,20.5,20.3,96,96,1.0,2,20.89,南宫,中国,河北省,邢台市,南宫市,54705,37.3667,115.3833,27.4
54706,2022-08-08 16:00:00,1003.2,1006.7,1003.2,1002.9,3.2,6.0,338,332,3.4,338,21.6,22.7,21.6,96,96,1.4,2,22.32,清河,中国,河北省,邢台市,清河县,54706,37.0833,115.6667,31.5
54707,2022-08-08 16:00:00,1003.5,1006.8,1003.7,1003.5,3.3,5.8,18,34,3.1,12,22.8,23.2,22.8,96,96,0.3,2,23.64,故城,中国,河北省,衡水市,故城县,54707,37.35,115.9833,27.4
54708,2022-08-08 16:00:00,1004.3,1007.2,1004.3,1004.1,4.8,7.7,360,7,3.5,4,20.7,21.8,20.7,100,100,5.3,3,21.44,枣强,中国,河北省,衡水市,枣强县,54708,37.5,115.7333,23.6
54710,2022-08-08 16:00:00,1005.6,1007.6,1006.0,1005.6,3.0,6.2,22,20,3.2,19,20.9,22.4,20.9,100,100,7.5,2,21.66,阜城,中国,河北省,衡水市,阜城县,54710,37.8447,116.1506,15.8
54711,2022-08-08 16:00:00,1005.3,1007.2,1005.5,1005.3,2.5,5.0,354,10,2.4,1,21.8,22.6,21.8,100,100,0.2,2,22.65,景县,中国,河北省,衡水市,景县,54711,37.6686,116.265,15.0
54713,2022-08-08 16:00:00,1006.2,1008.0,1006.2,1005.6,3.0,5.6,46,31,1.6,45,22.5,23.6,22.5,93,84,3.0,2,23.23,东光,中国,河北省,沧州市,东光县,54713,37.8833,116.5333,14.4
54717,2022-08-08 16:00:00,1005.1,1007.2,1005.6,1005.0,3.2,5.2,71,35,2.8,51,22.0,22.2,22.0,95,95,0.2,2,22.74,吴桥,中国,河北省,沧州市,吴桥县,54717,37.6333,116.4,17.1
54719,2022-08-08 16:00:00,1006.2,1007.6,1006.7,1006.2,3.0,5.1,62,64,3.4,60,22.2,24.5,22.2,86,73,1.5,2,22.72,南皮,中国,河北省,沧州市,南皮县,54719,38.0119,116.6822,10.8
54800,2022-08-08 16:00:00,1003.2,1007.2,1003.2,1003.1,4.6,8.2,360,357,4.5,352,21.0,21.7,21.0,99,99,0.0,3,21.74,威县,中国,河北省,邢台市,威县,54800,37.0,115.25,33.3
54801,2022-08-08 16:00:00,1002.5,1006.7,1002.5,1002.2,4.3,8.0,349,340,3.9,335,21.7,22.8,21.7,99,99,0.1,3,22.51,临西,中国,河北省,邢台市,临西县,54801,36.85,115.4833,35.3
54804,2022-08-08 16:00:00,1001.4,1006.7,1001.4,1001.2,3.4,6.4,314,327,3.0,321,22.5,23.0,22.5,96,95,0.0,2,23.31,大名,中国,河北省,邯郸市,大名县,54804,36.3042,115.1814,45.3
54809,2022-08-08 16:00:00,1001.7,1006.6,1001.7,1001.5,3.3,8.0,348,354,3.5,349,22.4,23.0,22.4,95,95,0.0,2,23.18,馆陶,中国,河北省,邯郸市,馆陶县,54809,36.55,115.2833,41.3
54820,2022-08-08 16:00:00,1002.3,1006.9,1002.5,1002.3,5.1,8.6,344,343,5.5,341,21.6,22.4,21.6,97,97,0.0,3,22.35,邱县,中国,河北省,邯郸市,邱县,54820,36.81,115.2078,39.0
53992,2022-08-08 16:00:00,999.6,1006.4,999.8,999.6,6.6,11.5,3,3,5.8,359,24.2,24.3,24.2,85,85,0.0,3,24.9,浚县,中国,河南省,鹤壁市,浚县,53992,35.6589,114.5183,58.2
53993,2022-08-08 16:00:00,1000.5,1006.5,1000.7,1000.4,5.2,9.3,335,344,5.2,343,23.4,23.7,23.4,87,87,0.0,3,24.07,内黄,中国,河南省,安阳市,内黄县,53993,35.9425,114.91,51.6
53998,2022-08-08 16:00:00,998.7,1005.8,998.8,998.5,4.2,8.4,331,339,2.8,338,24.9,25.6,24.9,99,99,0.0,2,26.03,长垣,中国,河南省,新乡市,长垣县,53998,35.1933,114.6547,61.6
54817,2022-08-08 16:00:00,1000.4,1005.4,1000.4,1000.0,1.9,3.4,328,325,1.7,332,26.5,26.8,26.5,100,100,1.0,2,30.08,台前,中国,河南省,濮阳市,台前县,54817,35.9842,115.8619,42.1
54900,2022-08-08 16:00:00,1000.0,1006.3,1000.0,999.7,4.6,8.4,340,340,3.7,333,24.0,24.9,24.0,97,96,0.0,3,24.99,濮阳,中国,河南省,濮阳市,濮阳县,54900,35.6967,115.0317,53.7
54901,2022-08-08 16:00:00,1000.5,1006.0,1000.5,1000.3,4.6,8.0,336,327,3.2,347,23.2,23.8,23.2,96,96,0.0,3,24.08,南乐,中国,河南省,濮阳市,南乐县,54901,36.0581,115.2414,46.6
54902,2022-08-08 16:00:00,1000.4,1006.2,1000.5,1000.3,4.6,8.1,335,326,2.5,334,23.2,23.9,23.2,97,97,0.0,2,24.11,清丰,中国,河南省,濮阳市,清丰县,54902,35.9419,115.1428,49.3
54903,2022-08-08 16:00:00,1000.3,1005.7,1000.3,1000.2,3.7,6.4,326,327,3.7,322,24.1,24.9,24.1,100,100,0.0,3,25.18,范县,中国,河南省,濮阳市,范县,54903,35.8492,115.4761,46.0
57093,2022-08-08 16:00:00,996.9,1005.0,997.0,996.6,4.2,8.9,20,20,4.0,13,25.9,27.2,25.9,95,94,0.0,3,27.94,兰考,中国,河南省,开封市,兰考县,57093,34.8611,114.7989,70.8
57096,2022-08-08 16:00:00,997.3,1004.1,997.4,997.0,2.8,6.2,34,27,2.8,18,28.9,29.5,28.9,95,95,0.0,2,38.31,杞县,中国,河南省,开封市,杞县,57096,34.5406,114.7819,59.7
57099,2022-08-08 16:00:00,997.7,1003.7,997.7,997.6,1.0,3.3,113,114,0.6,134,32.0,32.3,32.0,74,73,0.0,1,41.92,太康,中国,河南省,周口市,太康县,57099,34.0744,114.8497,52.6
58001,2022-08-08 16:00:00,997.6,1004.0,997.6,997.2,3.1,4.1,20,27,2.7,14,29.0,30.0,29.0,92,92,0.0,2,37.8,睢县,中国,河南省,商丘市,睢县,58001,34.4769,115.0325,56.1
58004,2022-08-08 16:00:00,997.2,1004.3,997.2,997.0,3.2,5.0,31,7,3.1,10,28.6,29.6,28.6,98,95,0.0,2,38.06,民权,中国,河南省,商丘市,民权县,58004,34.6194,115.1944,61.6
58005,2022-08-08 16:00:00,997.8,1003.6,997.9,997.7,0.6,0.8,136,999017,0.0,140,29.1,29.3,29.1,93,92,0.0,0,38.44,商丘,中国,河南省,商丘市,梁园区,58005,34.4372,115.5353,50.8
58006,2022-08-08 16:00:00,998.3,1003.7,998.3,998.2,1.2,1.5,143,106,0.9,129,29.3,29.6,29.3,92,92,0.0,1,38.86,虞城,中国,河南省,商丘市,虞城县,58006,34.3903,115.8794,46.3
58007,2022-08-08 16:00:00,998.1,1003.4,998.3,998.1,1.1,1.3,118,180,0.5,125,29.3,29.7,29.3,100,100,0.0,1,41.41,柘城,中国,河南省,商丘市,柘城县,58007,34.0983,115.3592,45.7
58008,2022-08-08 16:00:00,997.5,1003.9,997.5,997.3,2.2,4.5,11,10,2.6,8,29.8,29.9,29.4,100,100,0.0,2,43.5,宁陵,中国,河南省,商丘市,宁陵县,58008,34.4867,115.3156,55.8
58017,2022-08-08 16:00:00,998.9,1003.8,999.0,998.8,1.6,2.0,152,120,0.8,153,29.5,29.9,29.5,96,94,0.0,1,40.88,夏邑,中国,河南省,商丘市,夏邑县,58017,34.2831,116.1508,42.6
