Station_Id_C,dt,PRS,PRS_Sea,PRS_Max,PRS_Min,WIN_S_Max,WIN_S_Inst_Max,WIN_D_INST_Max,WIN_D_Avg_2mi,WIN_S_Avg_2mi,WIN_D_S_Max,TEM,TEM_Max,TEM_Min,RHU,RHU_Min,PRE_1h,windpower,tigan,Station_Name,Country,Province,City,Cnty,Station_Id_d,Lat,Lon,Alti
58015,2022-08-08 21:00:00,998.1,1003.0,998.1,997.8,1.8,2.7,357,13,1.5,305,29.1,30.2,29.1,99,99,0.0,2,40.28,砀山,中国,安徽省,宿州市,砀山县,58015,34.4389,116.3397,42.1
58016,2022-08-08 21:00:00,999.1,1003.1,999.1,998.8,0.9,1.3,242,242,0.6,152,29.3,29.6,29.1,86,85,0.0,1,37.1,萧县,中国,安徽省,宿州市,萧县,58016,34.1803,116.9628,34.9
58116,2022-08-08 21:00:00,999.3,1003.1,999.3,999.1,1.6,2.7,194,193,1.2,180,29.7,29.8,29.7,87,87,0.0,1,38.74,淮北,中国,安徽省,淮北市,杜集区,58116,34.0333,116.8689,32.9
58012,2022-08-08 21:00:00,998.6,1003.4,998.6,998.2,1.6,2.3,234,337,0.7,245,29.0,29.4,28.9,100,97,0.0,1,40.2,丰县,中国,江苏省,徐州市,丰县,58012,34.6719,116.6561,42.0
58013,2022-08-08 21:00:00,999.2,1003.4,999.2,998.7,1.6,3.9,312,999017,0.2,192,29.7,31.0,29.7,97,80,0.0,1,42.02,沛县,中国,江苏省,徐州市,沛县,58013,34.7533,116.9058,36.5
58026,2022-08-08 21:00:00,1000.5,1003.5,1000.5,1000.3,0.6,1.0,164,145,0.4,154,29.0,29.7,29.0,95,95,0.0,1,38.67,邳州,中国,江苏省,徐州市,邳州市,58026,34.3942,118.0189,25.7
58027,2022-08-08 21:00:00,998.6,1003.3,998.6,998.2,1.7,3.3,165,192,0.8,179,31.2,31.6,31.2,75,73,0.0,1,39.78,徐州,中国,江苏省,徐州市,市辖区,58027,34.2872,117.1586,41.2
58035,2022-08-08 21:00:00,1000.4,1003.8,1000.4,1000.1,1.0,2.1,177,193,1.0,183,29.3,29.7,29.2,95,92,0.0,1,39.79,新沂,中国,江苏省,徐州市,新沂市,58035,34.3319,118.3536,29.3
58036,2022-08-08 21:00:00,1000.1,1003.9,1000.2,999.8,1.6,2.8,173,180,1.8,176,30.0,30.0,29.8,90,89,0.0,1,40.77,东海,中国,江苏省,连云港市,东海县,58036,34.5425,118.7136,32.9
58038,2022-08-08 21:00:00,1002.9,1004.2,1002.9,1002.6,1.4,3.1,202,218,1.0,200,29.8,30.2,29.8,87,86,0.0,1,39.08,沭阳,中国,江苏省,宿迁市,沭阳县,58038,34.0911,118.7836,10.4
58040,2022-08-08 21:00:00,1003.0,1003.7,1003.1,1002.7,2.7,5.0,191,186,2.2,191,31.4,31.9,31.4,79,78,0.0,2,41.86,赣榆,中国,江苏省,连云港市,赣榆区,58040,34.8564,119.1269,5.3
58041,2022-08-08 21:00:00,1000.8,1003.9,1000.8,1000.3,6.7,8.8,207,227,5.9,201,32.4,32.4,32.1,69,69,0.0,3,41.22,西连岛,中国,江苏省,连云港市,连云区,58041,34.7778,119.4425,26.2
58044,2022-08-08 21:00:00,1003.6,1004.3,1003.6,1003.0,1.0,1.8,190,174,1.0,202,29.5,30.1,29.5,86,86,0.0,1,37.76,连云港,中国,江苏省,连云港市,市辖区,58044,34.5489,119.2347,4.7
58045,2022-08-08 21:00:00,1003.8,1004.5,1003.8,1003.3,2.7,4.4,178,193,1.8,181,29.7,30.1,29.7,82,80,0.0,2,37.29,响水,中国,江苏省,盐城市,响水县,58045,34.1142,119.3606,4.4
58047,2022-08-08 21:00:00,1003.6,1004.3,1003.6,1003.0,2.7,4.0,197,198,1.5,198,30.6,30.8,30.6,71,71,0.0,2,36.82,灌云,中国,江苏省,连云港市,灌云县,58047,34.2575,119.2361,4.8
58048,2022-08-08 21:00:00,1003.2,1004.2,1003.2,1002.9,2.9,4.3,184,184,2.8,183,30.0,30.2,30.0,83,82,0.0,2,38.54,灌南,中国,江苏省,连云港市,灌南县,58048,34.0639,119.2928,8.0
58049,2022-08-08 21:00:00,1004.1,1004.7,1004.1,1003.8,1.6,4.0,187,181,0.8,188,29.8,30.2,29.7,77,76,0.0,1,36.27,滨海,中国,江苏省,盐城市,滨海县,58049,34.0164,119.8031,4.1
54709,2022-08-08 21:00:00,1003.2,1006.2,1003.2,1002.9,4.5,8.4,57,8,3.9,44,20.2,20.9,20.2,100,100,0.0,3,20.89,武城,中国,山东省,德州市,武城县,54709,37.2333,116.0667,24.8
54712,2022-08-08 21:00:00,1003.2,1005.5,1003.2,1002.9,4.4,8.5,17,24,3.3,16,21.8,21.8,21.6,100,100,0.1,3,22.65,临邑,中国,山东省,德州市,临邑县,54712,37.2,116.8167,18.5
54714,2022-08-08 21:00:00,1003.1,1006.2,1003.1,1002.7,4.4,7.5,28,19,3.8,31,20.5,20.7,20.5,100,100,0.1,2,21.22,德州,中国,山东省,德州市,德城区,54714,37.35,116.3333,25.4
54715,2022-08-08 21:00:00,1004.0,1006.2,1004.0,1003.4,4.4,8.5,35,11,4.5,28,21.1,21.2,21.0,95,95,0.1,3,21.75,陵城,中国,山东省,临沂市,兰陵县,54715,37.3167,116.5167,17.6
54716,2022-08-08 21:00:00,1004.0,1006.1,1004.0,1003.8,2.8,4.6,343,6,2.6,2,20.9,21.0,20.9,96,96,0.1,2,21.55,宁津,中国,山东省,德州市,宁津县,54716,37.6667,116.8,17.3
54722,2022-08-08 21:00:00,1004.8,1005.7,1004.9,1004.2,4.7,9.6,39,45,5.2,38,21.8,22.6,21.8,100,100,19.4,3,22.65,无棣,中国,山东省,滨州市,无棣县,54722,37.75,117.6333,6.8
54723,2022-08-08 21:00:00,1004.8,1006.1,1004.8,1004.2,4.0,8.5,360,4,3.0,35,22.4,22.4,22.2,95,95,21.2,2,23.18,阳信,中国,山东省,滨州市,阳信县,54723,37.65,117.5667,10.1
54724,2022-08-08 21:00:00,1003.9,1005.8,1003.9,1003.5,4.0,8.2,14,24,2.4,357,21.6,21.7,21.5,98,97,12.7,2,22.37,商河,中国,山东省,济南市,商河县,54724,37.3167,117.1333,14.8
54725,2022-08-08 21:00:00,1004.5,1006.0,1004.5,1003.4,2.9,4.9,14,11,1.8,7,22.0,22.3,22.0,100,100,27.9,2,22.87,惠民,中国,山东省,滨州市,惠民县,54725,37.5,117.5333,11.7
54726,2022-08-08 21:00:00,1004.6,1006.1,1004.7,1004.1,3.5,7.9,34,36,4.2,15,21.8,21.8,21.7,100,100,5.0,2,22.65,乐陵,中国,山东省,德州市,乐陵市,54726,37.7,117.1833,11.5
54727,2022-08-08 21:00:00,974.4,1004.2,974.6,974.0,6.2,10.7,249,142,2.6,254,24.5,24.9,24.4,98,96,6.0,2,25.56,章丘,中国,山东省,济南市,章丘区,54727,36.65,117.5167,263.0
54728,2022-08-08 21:00:00,1004.8,1006.2,1004.8,1004.1,4.2,6.8,11,19,3.0,30,22.0,22.0,21.8,100,100,4.4,2,22.87,庆云,中国,山东省,德州市,庆云县,54728,37.7667,117.35,10.5
54729,2022-08-08 21:00:00,1003.0,1004.5,1003.1,1002.5,2.5,5.1,67,74,2.0,74,23.7,23.7,23.4,96,96,0.0,2,24.63,高青,中国,山东省,淄博市,高青县,54729,37.1667,117.8667,11.5
54734,2022-08-08 21:00:00,1002.6,1004.8,1002.6,1001.9,4.8,7.3,70,49,2.6,64,23.4,23.4,23.2,97,96,0.1,2,24.33,滨州,中国,山东省,滨州市,滨城区,54734,37.35,118.0333,17.8
54736,2022-08-08 21:00:00,1004.1,1004.9,1004.1,1003.7,3.3,6.8,39,57,2.4,23,24.1,24.2,24.0,95,95,0.3,2,25.05,东营,中国,山东省,东营市,东营区,54736,37.4333,118.6667,6.0
54744,2022-08-08 21:00:00,1004.3,1005.4,1004.3,1003.6,3.6,7.5,59,62,2.5,58,23.4,23.4,23.3,95,95,3.7,2,24.28,垦利,中国,山东省,东营市,垦利区,54744,37.5833,118.55,8.5
54749,2022-08-08 21:00:00,998.4,1004.0,998.6,998.3,2.0,3.9,83,74,2.3,90,26.2,26.3,26.1,93,93,0.7,2,28.71,莱州,中国,山东省,烟台市,莱州市,54749,37.1833,119.95,48.4
54751,2022-08-08 21:00:00,1001.2,1005.9,1001.2,1000.8,5.2,7.5,94,100,4.2,93,23.3,23.4,22.9,100,100,0.0,3,24.3,长岛,中国,山东省,烟台市,长岛县,54751,37.9392,120.7256,39.7
54752,2022-08-08 21:00:00,998.9,1006.0,998.9,998.5,2.3,4.4,56,69,1.9,89,23.2,23.2,22.8,98,98,0.0,2,24.13,蓬莱,中国,山东省,烟台市,蓬莱市,54752,37.8,120.7667,60.7
54753,2022-08-08 21:00:00,1004.9,1005.6,1005.0,1004.6,3.6,6.3,65,68,3.1,63,23.8,24.3,23.8,100,100,0.0,2,24.85,龙口,中国,山东省,烟台市,龙口市,54753,37.6333,120.3333,4.8
54755,2022-08-08 21:00:00,991.6,1005.1,991.8,991.5,2.6,4.0,31,70,1.1,39,24.7,25.1,24.7,96,96,7.5,2,25.73,招远,中国,山东省,烟台市,招远市,54755,37.3283,120.3869,117.8
54759,2022-08-08 21:00:00,982.1,1005.6,982.1,981.7,6.2,8.9,51,30,3.1,47,22.8,23.9,22.8,100,100,8.9,3,23.75,栖霞,中国,山东省,烟台市,栖霞市,54759,37.3247,120.8519,205.5
54764,2022-08-08 21:00:00,999.3,1005.6,999.7,999.2,3.3,5.8,42,45,2.0,43,23.7,23.9,23.6,95,95,3.1,2,24.61,福山,中国,山东省,烟台市,福山区,54764,37.4833,121.2333,53.9
54765,2022-08-08 21:00:00,996.3,1005.8,996.5,996.0,4.7,8.3,19,19,5.0,22,23.7,24.1,23.5,98,98,5.2,3,24.68,烟台,中国,山东省,烟台市,莱山区,54765,37.4833,121.4333,82.0
54776,2022-08-08 21:00:00,999.6,1005.2,1000.1,999.4,8.3,10.3,45,54,7.1,44,24.4,24.8,24.4,98,98,3.0,4,25.45,成山头,中国,山东省,威海市,荣成市,54776,37.4,122.7,47.7
54777,2022-08-08 21:00:00,991.9,1005.5,992.1,991.3,5.1,7.4,37,358,2.3,41,24.0,24.8,24.0,96,95,11.3,2,24.96,文登,中国,山东省,威海市,文登区,54777,37.2,122.0667,118.0
54802,2022-08-08 21:00:00,1001.8,1005.9,1001.8,1001.3,3.6,5.7,42,49,3.1,44,21.1,21.1,21.0,98,98,0.0,2,21.82,临清,中国,山东省,聊城市,临清市,54802,36.8167,115.7333,34.0
54806,2022-08-08 21:00:00,1000.8,1005.1,1001.1,1000.7,4.1,6.4,337,337,3.4,345,22.5,22.5,22.1,98,98,0.0,3,23.36,聊城,中国,山东省,聊城市,东昌府区,54806,36.3494,115.9761,36.1
54807,2022-08-08 21:00:00,1000.5,1005.4,1000.5,1000.1,5.0,7.1,357,343,3.3,358,21.1,21.3,21.1,100,100,0.9,2,21.88,阳谷,中国,山东省,聊城市,阳谷县,54807,36.15,115.7667,41.2
54808,2022-08-08 21:00:00,1001.2,1005.8,1001.2,1000.9,4.6,7.1,345,340,4.4,349,21.0,21.1,20.9,98,97,0.0,3,21.71,莘县,中国,山东省,聊城市,莘县,54808,36.2156,115.6267,38.7
54812,2022-08-08 21:00:00,1002.0,1005.0,1002.5,1001.4,3.4,6.5,300,1,2.8,337,22.4,23.2,22.4,100,100,14.5,2,23.31,齐河,中国,山东省,德州市,齐河县,54812,36.7333,116.7167,24.7
54814,2022-08-08 21:00:00,1001.4,1004.9,1001.8,1001.2,3.9,6.5,17,22,3.0,11,22.5,23.2,22.5,99,98,0.0,2,23.39,茌平,中国,山东省,聊城市,茌平县,54814,36.5333,116.25,29.7
54815,2022-08-08 21:00:00,1000.7,1004.4,1001.1,1000.4,4.7,7.5,323,11,3.1,356,23.0,24.0,23.0,98,98,0.4,3,23.91,东阿,中国,山东省,聊城市,东阿县,54815,36.3833,116.2667,31.4
54816,2022-08-08 21:00:00,992.9,1004.3,993.2,992.7,3.8,5.7,358,360,3.8,355,24.2,25.3,24.2,96,96,5.7,3,25.18,长清,中国,山东省,济南市,长清区,54816,36.5167,116.8,98.9
54818,2022-08-08 21:00:00,995.4,1004.6,995.4,994.8,5.0,8.0,345,359,5.2,1,23.5,24.8,23.5,97,97,3.7,3,24.44,平阴,中国,山东省,济南市,平阴县,54818,36.25,116.4167,79.9
54819,2022-08-08 21:00:00,991.1,1004.1,991.3,990.7,1.5,3.3,36,333,1.0,33,25.3,25.4,25.3,97,97,5.8,1,26.42,肥城,中国,山东省,泰安市,肥城市,54819,36.1833,116.8,113.6
54821,2022-08-08 21:00:00,1003.0,1005.5,1003.0,1002.0,3.5,5.7,338,314,2.5,324,22.6,24.0,22.6,96,95,2.7,2,23.42,济阳,中国,山东省,济南市,济阳县,54821,37.0,117.2,20.4
54822,2022-08-08 21:00:00,999.0,1004.6,999.0,998.3,1.6,3.2,86,214,1.3,98,24.6,24.7,24.6,100,100,0.1,1,25.73,邹平,中国,山东省,滨州市,邹平县,54822,36.8667,117.7333,47.4
54823,2022-08-08 21:00:00,985.3,1004.7,985.5,984.8,1.9,3.6,303,11,1.5,304,25.1,25.4,25.1,96,95,9.2,1,26.17,济南,中国,山东省,济南市,市中区,54823,36.6019,117.0081,170.3
54824,2022-08-08 21:00:00,993.4,1004.3,993.5,993.2,1.1,1.9,237,348,0.5,249,25.6,25.6,25.6,94,93,0.0,1,27.09,淄川,中国,山东省,淄博市,淄川区,54824,36.6333,117.95,95.0
54825,2022-08-08 21:00:00,981.4,1002.9,981.8,981.2,1.5,2.3,150,203,0.9,129,25.4,25.4,25.1,81,81,2.9,1,26.11,博山,中国,山东省,淄博市,博山区,54825,36.5167,117.85,189.7
54826,2022-08-08 21:00:00,843.2,1006.1,843.6,843.1,8.3,15.5,217,243,8.3,262,20.2,21.6,19.9,100,100,8.5,5,20.89,泰山,中国,山东省,泰安市,泰山区,54826,36.25,117.1,1533.7
54827,2022-08-08 21:00:00,989.6,1004.2,990.1,989.2,3.1,7.3,269,25,1.0,267,26.1,26.1,25.7,94,94,0.4,2,28.47,泰安,中国,山东省,泰安市,泰山区,54827,36.1667,117.15,128.6
54828,2022-08-08 21:00:00,977.7,1003.5,978.1,977.7,2.7,4.9,194,356,1.1,215,25.8,26.9,25.8,97,87,5.9,1,27.7,莱芜,中国,山东省,莱芜市, ,54828,36.2333,117.6833,229.3
54829,2022-08-08 21:00:00,994.4,1004.3,994.5,994.2,1.1,1.6,22,43,0.3,27,24.5,24.7,24.5,97,97,0.0,1,25.54,周村,中国,山东省,淄博市,周村区,54829,36.7667,117.8667,85.7
54830,2022-08-08 21:00:00,1000.2,1004.3,1000.3,999.8,1.8,3.3,68,81,1.0,85,24.9,24.9,24.8,96,96,0.0,1,25.95,淄博,中国,山东省,淄博市,张店区,54830,36.8167,117.9333,34.4
54831,2022-08-08 21:00:00,992.2,1004.0,992.2,991.7,2.2,3.2,360,169,0.9,344,26.0,26.4,26.0,94,94,0.0,1,28.19,青州,中国,山东省,潍坊市,青州市,54831,36.65,118.5,102.5
54832,2022-08-08 21:00:00,1001.3,1004.1,1001.3,1001.0,2.2,3.5,326,357,1.0,326,25.9,26.8,25.9,95,95,2.1,1,27.94,寿光,中国,山东省,潍坊市,寿光市,54832,36.8631,118.7953,23.4
54833,2022-08-08 21:00:00,1002.4,1004.3,1002.6,1001.9,0.3,2.5,67,999017,0.0,67,24.1,24.2,24.1,100,100,0.0,0,25.18,桓台,中国,山东省,淄博市,桓台县,54833,36.9667,118.0833,15.1
54834,2022-08-08 21:00:00,998.7,1004.1,998.8,998.5,2.2,4.4,59,48,0.9,50,24.5,24.6,24.5,96,95,0.0,1,25.51,临淄,中国,山东省,淄博市,临淄区,54834,36.8667,118.2833,46.3
54835,2022-08-08 21:00:00,987.3,1004.3,987.4,986.9,3.6,5.7,222,25,1.5,218,25.8,26.3,25.8,95,91,3.5,1,27.66,临朐,中国,山东省,潍坊市,临朐县,54835,36.4733,118.5606,149.5
54836,2022-08-08 21:00:00,969.8,1003.9,970.5,969.8,2.7,3.4,329,999017,0.0,326,26.0,26.0,25.7,100,100,3.5,0,28.41,沂源,中国,山东省,淄博市,沂源县,54836,36.1833,118.1667,305.1
54837,2022-08-08 21:00:00,995.1,1004.2,995.1,994.7,1.2,2.1,135,135,1.9,210,26.6,26.7,26.6,98,98,0.7,1,30.26,昌乐,中国,山东省,潍坊市,昌乐县,54837,36.6797,118.8361,78.8
54841,2022-08-08 21:00:00,1001.5,1004.3,1001.5,1000.8,2.3,3.8,124,80,0.8,95,26.3,26.3,26.2,100,100,2.7,1,29.41,昌邑,中国,山东省,潍坊市,昌邑市,54841,36.8617,119.4181,23.5
54842,2022-08-08 21:00:00,997.2,1004.4,997.5,996.8,2.4,3.8,127,999017,0.1,110,25.8,26.1,25.7,100,100,0.4,1,27.77,平度,中国,山东省,青岛市,平度市,54842,36.7833,120.0,62.2
54843,2022-08-08 21:00:00,1001.6,1004.3,1001.6,1000.8,2.1,2.8,137,139,1.7,145,26.9,26.9,26.7,96,96,0.0,1,31.86,潍坊,中国,山东省,潍坊市,寒亭区,54843,36.75,119.2,22.2
54844,2022-08-08 21:00:00,997.0,1004.2,997.0,996.5,2.0,3.3,2,201,0.9,152,26.6,26.7,26.6,100,99,16.9,1,30.43,安丘,中国,山东省,潍坊市,安丘市,54844,36.4167,119.1833,62.7
54846,2022-08-08 21:00:00,998.3,1004.3,998.4,997.9,1.7,4.5,308,135,1.0,112,25.6,25.6,25.5,97,97,0.1,1,27.12,高密,中国,山东省,潍坊市,高密市,54846,36.3853,119.7361,51.5
54848,2022-08-08 21:00:00,991.6,1004.1,991.8,991.4,0.6,1.0,357,16,0.5,348,25.7,25.8,25.6,97,97,0.1,0,27.41,诸城,中国,山东省,潍坊市,诸城市,54848,35.9633,119.4847,109.0
54849,2022-08-08 21:00:00,994.7,1004.5,994.7,994.4,3.2,4.4,91,70,1.8,91,25.7,25.9,25.6,99,98,0.2,2,27.44,胶州,中国,山东省,青岛市,胶州市,54849,36.2167,120.0333,84.4
54851,2022-08-08 21:00:00,995.8,1004.7,996.3,995.7,2.9,4.5,147,134,1.4,146,25.5,26.3,25.5,100,98,1.8,1,26.83,莱西,中国,山东省,青岛市,莱西市,54851,36.9,120.5667,76.9
54852,2022-08-08 21:00:00,999.8,1004.7,1000.1,999.8,1.2,2.2,59,94,1.2,64,26.1,26.2,26.1,100,99,0.2,1,28.74,莱阳,中国,山东省,烟台市,莱阳市,54852,36.9667,120.7167,41.6
54853,2022-08-08 21:00:00,997.8,1004.1,998.4,997.8,4.1,3.9,310,290,0.7,325,25.9,25.9,25.3,99,99,0.0,1,28.06,崂山,中国,山东省,青岛市,李沧区,54853,36.1333,120.5167,54.0
54855,2022-08-08 21:00:00,998.9,1004.5,999.2,998.8,2.2,3.5,79,126,1.7,71,25.3,25.9,25.3,99,99,0.9,1,26.47,即墨,中国,山东省,青岛市,即墨区,54855,36.4,120.3833,47.8
54857,2022-08-08 21:00:00,995.4,1004.2,995.7,995.3,2.1,3.0,84,108,1.4,79,25.8,25.9,25.4,95,95,0.0,1,27.66,青岛,中国,山东省,青岛市,市南区,54857,36.0667,120.3333,76.0
54861,2022-08-08 21:00:00,999.8,1005.1,999.9,999.4,2.2,4.2,321,316,0.9,326,26.0,26.4,26.0,94,92,0.2,1,28.19,乳山,中国,山东省,威海市,乳山市,54861,36.9333,121.5333,45.4
54863,2022-08-08 21:00:00,1000.0,1004.8,1000.4,1000.0,1.3,1.9,140,119,0.6,168,26.5,26.5,26.5,97,97,0.5,1,29.86,海阳,中国,山东省,烟台市,海阳市,54863,36.775,121.1783,40.9
54871,2022-08-08 21:00:00,1004.2,1005.5,1004.2,1003.5,2.3,4.2,67,207,1.7,72,25.1,25.1,25.0,100,100,0.1,2,26.28,石岛,中国,山东省,威海市,荣成市,54871,36.9333,122.4833,9.8
54904,2022-08-08 21:00:00,999.5,1005.3,999.5,999.2,4.3,6.0,351,336,3.1,341,22.6,22.7,22.6,92,92,0.0,2,23.32,鄄城,中国,山东省,菏泽市,鄄城县,54904,35.5833,115.5167,50.1
54905,2022-08-08 21:00:00,999.6,1005.0,999.6,999.2,3.6,7.2,337,321,2.5,331,23.5,24.1,23.5,96,95,0.0,2,24.41,郓城,中国,山东省,菏泽市,郓城县,54905,35.5833,115.9333,46.2
54906,2022-08-08 21:00:00,999.1,1005.0,999.1,998.6,4.1,7.5,323,325,2.5,330,23.3,23.5,23.3,93,93,0.0,2,24.11,菏泽,中国,山东省,菏泽市,牡丹区,54906,35.3167,115.5333,50.7
54907,2022-08-08 21:00:00,999.4,1003.4,999.4,998.9,3.2,5.6,335,332,2.0,340,28.1,28.8,28.1,89,88,0.0,2,34.08,鱼台,中国,山东省,济宁市,鱼台县,54907,34.9833,116.65,34.3
54908,2022-08-08 21:00:00,998.3,1004.9,998.3,997.7,4.7,8.3,340,23,2.2,349,23.4,23.6,23.4,87,87,0.0,2,24.07,东明,中国,山东省,菏泽市,东明县,54908,35.2667,115.1,57.3
54909,2022-08-08 21:00:00,998.8,1004.8,998.9,998.1,3.5,6.0,329,331,4.1,330,24.0,24.6,24.0,92,92,0.0,3,24.86,定陶,中国,山东省,菏泽市,定陶区,54909,35.0833,115.5167,51.5
54910,2022-08-08 21:00:00,1000.0,1004.8,1000.1,999.7,4.4,8.0,301,332,2.2,315,22.9,23.6,22.9,100,100,0.0,2,23.86,梁山,中国,山东省,济宁市,梁山县,54910,35.8125,116.0533,40.9
54911,2022-08-08 21:00:00,999.2,1004.3,999.2,998.9,1.5,2.5,299,310,0.5,301,25.6,25.8,25.6,97,96,1.7,0,27.12,东平,中国,山东省,泰安市,东平县,54911,35.9333,116.4,44.0
54912,2022-08-08 21:00:00,999.3,1004.2,999.3,999.0,2.5,4.2,312,300,1.7,309,26.0,26.4,26.0,95,95,0.0,2,28.23,汶上,中国,山东省,济宁市,汶上县,54912,35.7667,116.5,41.8
54913,2022-08-08 21:00:00,996.3,1004.1,996.3,995.9,2.4,3.6,314,326,1.8,306,25.8,25.8,25.7,94,91,0.2,1,27.63,宁阳,中国,山东省,泰安市,宁阳县,54913,35.7953,116.8067,67.6
54914,2022-08-08 21:00:00,999.9,1004.6,999.9,999.5,4.2,6.5,14,348,2.8,348,24.2,25.1,24.2,100,100,0.0,3,25.29,巨野,中国,山东省,菏泽市,巨野县,54914,35.4167,116.0833,40.6
54915,2022-08-08 21:00:00,999.4,1003.3,999.4,999.0,2.6,4.4,6,337,2.7,340,26.8,27.0,26.8,96,92,0.0,2,31.56,济宁,中国,山东省,济宁市,任城区,54915,35.4411,116.6014,33.3
54916,2022-08-08 21:00:00,998.1,1003.1,998.1,997.8,3.5,6.4,326,328,2.4,334,27.0,27.0,26.8,88,88,0.0,2,30.74,兖州,中国,山东省,济宁市,兖州区,54916,35.5333,116.8333,43.3
54917,2022-08-08 21:00:00,999.7,1003.9,999.7,999.1,4.0,6.1,332,319,4.3,324,26.3,27.0,26.3,93,93,0.0,3,28.99,金乡,中国,山东省,济宁市,金乡县,54917,35.1333,116.3333,35.8
54918,2022-08-08 21:00:00,996.6,1003.7,996.6,996.2,2.7,4.4,286,298,1.7,292,26.8,27.4,26.7,91,86,0.0,2,30.71,曲阜,中国,山东省,济宁市,曲阜市,54918,35.6,116.9733,62.3
54919,2022-08-08 21:00:00,993.4,1003.6,993.4,993.1,2.2,3.7,340,3,1.5,336,27.9,29.1,27.9,83,82,0.0,2,32.3,邹城,中国,山东省,济宁市,邹城市,54919,35.3667,116.9833,89.8
54920,2022-08-08 21:00:00,990.9,1003.4,990.9,990.7,1.5,2.4,68,33,0.7,61,27.7,28.2,27.7,90,87,0.0,1,33.1,泗水,中国,山东省,济宁市,泗水县,54920,35.65,117.2833,110.4
54921,2022-08-08 21:00:00,1000.0,1004.3,1000.0,999.4,4.2,6.3,301,318,2.8,305,24.8,26.1,24.8,97,94,0.0,2,25.87,嘉祥,中国,山东省,济宁市,嘉祥县,54921,35.4333,116.2833,37.1
54922,2022-08-08 21:00:00,980.6,1003.7,980.6,980.2,1.4,1.8,2,78,0.4,359,27.4,27.7,27.4,98,95,0.0,1,33.83,新泰,中国,山东省,泰安市,新泰市,54922,35.8667,117.75,206.0
54923,2022-08-08 21:00:00,971.5,1003.5,971.6,971.4,2.4,3.1,80,55,1.6,79,26.8,27.0,26.8,98,98,0.0,2,31.91,蒙阴,中国,山东省,临沂市,蒙阴县,54923,35.7333,117.95,286.5
54925,2022-08-08 21:00:00,985.3,1003.5,985.3,985.1,2.5,3.2,134,146,1.7,132,28.1,28.3,28.0,100,100,0.0,1,36.75,平邑,中国,山东省,临沂市,平邑县,54925,35.5,117.6833,161.2
54927,2022-08-08 21:00:00,994.5,1003.0,994.5,994.2,1.8,2.7,188,216,0.7,192,30.3,30.8,30.3,85,81,0.0,1,40.18,滕州,中国,山东省,枣庄市,滕州市,54927,35.1,117.2,74.9
54929,2022-08-08 21:00:00,985.2,1003.5,985.2,984.9,2.5,2.8,141,135,1.0,144,29.0,29.0,28.8,89,89,0.0,1,36.95,费县,中国,山东省,临沂市,费县,54929,35.2667,117.9667,121.2
54932,2022-08-08 21:00:00,982.9,1004.2,982.9,982.5,1.3,1.9,39,36,1.1,39,25.8,26.0,25.8,94,93,0.0,1,27.63,沂水,中国,山东省,临沂市,沂水县,54932,35.7667,118.65,186.7
54935,2022-08-08 21:00:00,990.4,1003.9,990.5,990.2,1.5,2.7,82,70,0.9,65,27.4,27.5,27.3,83,83,0.0,1,31.01,沂南,中国,山东省,临沂市,沂南县,54935,35.5333,118.4333,119.4
54936,2022-08-08 21:00:00,991.9,1004.0,991.9,991.5,1.1,2.0,51,80,0.6,77,26.9,27.0,26.9,100,100,0.0,1,32.58,莒县,中国,山东省,日照市,莒县,54936,35.5667,118.8333,107.4
54938,2022-08-08 21:00:00,989.8,1003.8,989.9,989.5,3.3,4.0,23,23,3.4,27,27.6,27.8,27.6,96,96,0.0,2,34.07,临沂,中国,山东省,临沂市,兰山区,54938,35.25,118.4167,124.0
54939,2022-08-08 21:00:00,991.1,1003.9,991.2,990.8,0.9,1.7,185,125,0.8,179,29.6,29.9,29.6,88,86,0.0,1,38.7,莒南,中国,山东省,临沂市,莒南县,54939,35.1667,118.8167,113.8
54940,2022-08-08 21:00:00,987.4,1004.1,987.4,987.0,0.0,0.0,999017,999017,0.0,999017,26.8,26.9,26.8,100,99,0.0,0,32.25,五莲,中国,山东省,日照市,五莲县,54940,35.75,119.2,148.2
54943,2022-08-08 21:00:00,1003.4,1004.2,1003.7,1003.4,2.5,4.0,89,118,0.3,88,27.3,27.5,27.2,99,98,0.0,1,33.71,黄岛,中国,山东省,青岛市,黄岛区,54943,35.8333,120.0333,5.7
54945,2022-08-08 21:00:00,996.8,1004.2,996.8,996.7,0.8,1.3,350,999017,0.0,274,27.7,28.0,27.7,99,99,0.0,0,35.07,日照,中国,山东省,日照市,东港区,54945,35.4667,119.55,64.4
58002,2022-08-08 21:00:00,998.7,1004.4,998.7,998.2,3.1,6.1,337,347,2.9,346,25.4,26.0,25.4,97,97,0.0,2,26.53,曹县,中国,山东省,菏泽市,曹县,58002,34.85,115.5833,49.0
58003,2022-08-08 21:00:00,998.9,1004.2,998.9,998.5,3.5,7.1,340,310,3.3,342,25.8,26.7,25.8,88,87,0.0,2,27.49,成武,中国,山东省,菏泽市,成武县,58003,34.95,115.8833,45.4
58011,2022-08-08 21:00:00,998.5,1003.8,998.5,998.0,2.7,5.4,334,23,1.6,332,26.7,27.6,26.7,91,89,0.0,2,30.44,单县,中国,山东省,菏泽市,单县,58011,34.8,116.0667,46.2
58020,2022-08-08 21:00:00,999.1,1003.2,999.1,998.8,0.8,1.4,123,999017,0.2,114,29.0,29.1,29.0,96,95,0.0,1,38.97,微山,中国,山东省,济宁市,微山县,58020,34.7681,117.1403,35.5
58021,2022-08-08 21:00:00,994.0,1003.1,994.0,993.8,2.4,3.8,149,147,1.6,158,30.4,30.5,30.3,78,77,0.0,2,38.3,薛城,中国,山东省,枣庄市,薛城区,58021,34.7833,117.2833,80.5
58022,2022-08-08 21:00:00,994.1,1003.6,994.1,993.9,1.3,1.6,87,999017,0.0,87,28.6,28.7,28.4,90,88,0.0,1,35.9,峄城,中国,山东省,枣庄市,峄城区,58022,34.7667,117.4833,83.4
58024,2022-08-08 21:00:00,994.7,1003.5,994.7,994.5,1.6,2.2,66,58,1.4,59,29.4,29.4,29.0,85,85,0.0,2,37.14,枣庄,中国,山东省,枣庄市,市中区,58024,34.8667,117.5833,77.7
58025,2022-08-08 21:00:00,1000.0,1003.4,1000.0,999.8,2.0,3.3,181,191,1.5,185,29.9,30.0,29.2,84,84,0.0,2,38.5,台儿庄,中国,山东省,枣庄市,台儿庄区,58025,34.6,117.7167,29.3
58030,2022-08-08 21:00:00,998.5,1003.6,998.5,998.2,1.1,2.3,193,188,0.6,197,30.1,30.3,30.1,92,90,0.0,1,41.84,兰陵,中国,山东省,临沂市,兰陵县,58030,34.8833,118.0167,44.5
58032,2022-08-08 21:00:00,993.7,1003.9,993.7,993.3,2.1,3.7,173,152,1.7,165,30.1,30.3,29.7,82,81,0.0,2,38.57,临沭,中国,山东省,临沂市,临沭县,58032,34.95,118.65,90.1
53688,2022-08-08 21:00:00,997.0,1008.7,997.1,996.8,2.4,3.4,360,65,2.1,8,21.7,22.3,21.7,84,77,0.0,1,22.12,行唐,中国,河北省,石家庄市,行唐县,53688,38.4186,114.5464,100.3
53689,2022-08-08 21:00:00,1003.4,1008.5,1003.9,1003.4,1.6,3.4,21,15,1.0,43,20.1,21.1,20.1,100,83,0.0,1,20.78,晋州,中国,河北省,石家庄市,晋州市,53689,38.0167,115.0667,42.4
53691,2022-08-08 21:00:00,1000.2,1008.6,1000.3,1000.0,1.6,3.4,50,61,0.9,52,22.5,23.0,22.5,79,75,0.0,1,22.87,正定,中国,河北省,石家庄市,正定县,53691,38.15,114.5667,71.0
53695,2022-08-08 21:00:00,1001.1,1008.7,1001.2,1001.0,1.9,3.2,64,67,1.4,75,22.1,22.7,22.1,70,69,0.0,2,22.19,新乐,中国,河北省,石家庄市,新乐市,53695,38.35,114.6833,70.8
53697,2022-08-08 21:00:00,1002.2,1008.5,1002.3,1002.0,1.3,3.3,59,69,1.2,62,21.7,22.5,21.7,77,69,0.0,1,21.94,藁城,中国,河北省,石家庄市,藁城区,53697,38.0333,114.8333,53.5
53699,2022-08-08 21:00:00,1002.7,1008.4,1003.0,1002.6,2.3,3.3,133,350,1.7,125,21.3,21.9,21.3,80,78,0.0,1,21.57,无极,中国,河北省,石家庄市,无极县,53699,38.1833,114.95,45.4
53773,2022-08-08 21:00:00,999.1,1006.8,999.2,999.0,6.5,10.4,18,17,5.2,13,21.5,21.6,21.5,83,82,0.0,4,21.87,临漳,中国,河北省,邯郸市,临漳县,53773,36.2986,114.595,65.5
53784,2022-08-08 21:00:00,1003.8,1008.4,1003.9,1003.4,2.6,6.1,71,63,3.0,68,20.6,21.6,20.6,83,78,0.0,2,20.88,赵县,中国,河北省,石家庄市,赵县,53784,37.75,114.7833,38.5
53785,2022-08-08 21:00:00,1003.8,1008.0,1003.8,1003.3,4.2,7.1,25,26,2.6,35,20.9,21.5,20.9,83,81,0.0,2,21.21,柏乡,中国,河北省,邢台市,柏乡县,53785,37.5167,114.6667,35.0
53789,2022-08-08 21:00:00,1002.0,1008.3,1002.2,1001.7,2.6,5.0,99,101,2.1,110,21.9,23.3,21.9,80,76,0.0,2,22.23,栾城,中国,河北省,石家庄市,栾城区,53789,37.8833,114.6333,52.9
53790,2022-08-08 21:00:00,1002.6,1007.9,1002.6,1002.1,3.4,4.9,68,51,2.5,72,20.9,21.9,20.9,82,81,0.0,2,21.19,高邑,中国,河北省,石家庄市,高邑县,53790,37.6347,114.6078,44.5
53794,2022-08-08 21:00:00,1004.3,1008.0,1004.3,1004.0,6.0,9.3,14,10,5.0,11,20.8,21.9,20.8,85,78,0.0,3,21.16,隆尧,中国,河北省,邢台市,隆尧县,53794,37.3903,114.7842,31.0
53796,2022-08-08 21:00:00,1004.8,1008.5,1004.9,1004.5,4.1,7.8,48,38,4.1,39,19.4,20.6,19.4,99,93,0.0,2,19.98,宁晋,中国,河北省,邢台市,宁晋县,53796,37.6178,114.8914,30.6
53799,2022-08-08 21:00:00,1004.3,1007.5,1004.5,1004.2,4.4,7.2,34,27,2.9,18,21.0,21.1,21.0,83,83,0.0,3,21.32,巨鹿,中国,河北省,邢台市,巨鹿县,53799,37.2378,114.9989,25.9
53883,2022-08-08 21:00:00,1002.7,1007.1,1002.9,1002.5,3.8,7.3,42,14,3.5,23,21.5,21.5,21.4,87,87,0.0,3,21.98,任县,中国,河北省,邢台市,任县,53883,37.1333,114.7,36.5
53891,2022-08-08 21:00:00,1001.8,1007.3,1001.8,1001.6,3.9,6.8,11,24,3.2,16,21.6,21.6,21.5,79,79,0.0,2,21.88,南和,中国,河北省,邢台市,南和县,53891,37.0167,114.6833,43.0
53893,2022-08-08 21:00:00,1002.7,1007.2,1002.8,1002.5,6.6,10.6,345,360,3.5,348,20.4,20.5,20.4,99,98,0.0,3,21.08,曲周,中国,河北省,邯郸市,曲周县,53893,36.7889,115.005,37.9
53896,2022-08-08 21:00:00,1000.6,1006.7,1000.8,1000.6,3.1,6.7,5,22,3.0,3,21.0,21.1,21.0,92,91,0.0,2,21.56,魏县,中国,河北省,邯郸市,魏县,53896,36.3278,114.9494,51.6
53899,2022-08-08 21:00:00,1001.2,1006.9,1001.6,1001.0,4.0,8.9,2,15,2.4,7,20.6,20.8,20.6,90,89,0.0,3,21.07,广平,中国,河北省,邯郸市,广平县,53899,36.4833,114.9667,48.5
53980,2022-08-08 21:00:00,1001.0,1006.9,1001.4,1001.0,4.7,8.3,17,18,4.1,5,21.0,21.3,20.9,85,84,0.0,3,21.38,肥乡,中国,河北省,邯郸市,肥乡区,53980,36.55,114.8,50.2
53996,2022-08-08 21:00:00,1000.4,1007.2,1000.5,1000.3,5.4,10.3,16,13,4.9,15,21.2,21.5,21.2,84,81,0.0,3,21.57,成安,中国,河北省,邯郸市,成安县,53996,36.45,114.65,57.9
54604,2022-08-08 21:00:00,1004.7,1008.4,1004.9,1004.5,1.6,2.3,119,156,1.2,78,20.9,21.0,20.9,81,75,0.0,1,21.16,安国,中国,河北省,保定市,安国市,54604,38.4047,115.2919,31.0
54606,2022-08-08 21:00:00,1006.2,1008.4,1006.2,1005.3,3.5,6.0,33,13,1.2,35,19.3,19.3,19.0,90,88,0.0,1,19.64,饶阳,中国,河北省,衡水市,饶阳县,54606,38.2231,115.7431,17.9
54608,2022-08-08 21:00:00,1005.2,1008.3,1005.3,1004.9,2.4,3.9,316,343,1.8,338,19.4,19.5,19.1,94,91,0.0,2,19.85,深州,中国,河北省,衡水市,深州市,54608,37.9903,115.5442,25.5
54609,2022-08-08 21:00:00,1006.0,1008.7,1006.0,1005.3,2.9,4.2,15,11,2.0,61,20.2,20.2,19.6,79,78,0.0,2,20.34,安平,中国,河北省,衡水市,安平县,54609,38.2306,115.5869,22.4
54614,2022-08-08 21:00:00,1006.7,1008.1,1006.7,1006.1,1.5,3.3,27,25,0.9,358,19.3,19.3,18.3,87,86,0.0,1,19.56,河间,中国,河北省,沧州市,河间市,54614,38.4197,116.0561,10.9
54616,2022-08-08 21:00:00,1006.3,1007.4,1006.3,1005.8,2.7,4.3,1,346,1.8,343,20.2,20.2,20.1,92,85,0.0,2,20.68,沧州,中国,河北省,沧州市,运河区,54616,38.35,116.85,8.0
54617,2022-08-08 21:00:00,1006.2,1007.9,1006.2,1005.5,2.9,4.8,19,3,1.7,56,19.5,19.5,18.8,86,86,0.0,2,19.75,献县,中国,河北省,沧州市,献县,54617,38.205,116.1706,13.3
54618,2022-08-08 21:00:00,1005.5,1007.2,1005.8,1005.2,4.0,7.9,360,358,3.4,349,20.0,20.7,20.0,86,82,0.0,3,20.3,泊头,中国,河北省,沧州市,泊头市,54618,38.0833,116.55,13.2
54620,2022-08-08 21:00:00,1006.1,1008.6,1006.1,1005.6,1.4,2.3,109,999017,0.2,84,19.8,20.0,19.8,87,86,0.0,1,20.11,蠡县,中国,河北省,保定市,蠡县,54620,38.4833,115.5667,18.5
54621,2022-08-08 21:00:00,1004.0,1008.6,1004.4,1003.9,1.7,1.7,90,81,1.0,95,20.6,20.9,20.6,82,80,0.0,1,20.86,深泽,中国,河北省,石家庄市,深泽县,54621,38.1833,115.1833,38.1
54624,2022-08-08 21:00:00,1006.5,1007.2,1006.5,1005.6,3.9,5.3,29,295,1.3,15,21.6,23.1,21.6,78,74,0.2,2,21.85,黄骅,中国,河北省,沧州市,黄骅市,54624,38.4081,117.3214,4.5
54626,2022-08-08 21:00:00,1007.0,1008.8,1007.0,1006.2,1.8,3.6,70,351,1.0,71,19.5,19.5,19.1,84,84,0.0,1,19.7,肃宁,中国,河北省,沧州市,肃宁县,54626,38.4167,115.8167,13.9
54627,2022-08-08 21:00:00,1005.7,1006.8,1005.7,1005.0,3.2,5.5,48,38,2.7,40,22.0,22.0,21.7,91,90,0.1,2,22.63,盐山,中国,河北省,沧州市,盐山县,54627,38.0333,117.2333,8.2
54628,2022-08-08 21:00:00,1005.9,1006.6,1005.9,1005.4,1.7,2.3,357,22,1.1,357,21.9,21.9,21.8,95,94,1.0,1,22.63,海兴,中国,河北省,沧州市,海兴县,54628,38.0839,117.4136,5.0
54631,2022-08-08 21:00:00,1003.5,1007.3,1003.5,1003.2,3.4,6.4,1,353,4.0,356,19.9,20.2,19.9,90,90,0.3,2,20.3,广宗,中国,河北省,邢台市,广宗县,54631,37.0939,115.1314,31.4
54632,2022-08-08 21:00:00,1003.1,1007.2,1003.2,1002.9,3.5,6.5,351,345,1.8,341,20.5,20.5,20.4,93,92,0.0,2,21.03,平乡,中国,河北省,邢台市,平乡县,54632,37.0667,115.0333,34.0
54633,2022-08-08 21:00:00,1004.5,1007.7,1004.6,1004.4,4.8,8.1,26,360,4.7,1,19.2,19.5,19.2,98,97,0.0,3,19.73,新河,中国,河北省,邢台市,新河县,54633,37.5081,115.2706,26.1
54640,2022-08-08 21:00:00,1002.8,1007.2,1003.1,1002.7,3.4,7.0,2,358,2.7,358,21.0,21.0,20.6,82,82,0.0,2,21.3,鸡泽,中国,河北省,邯郸市,鸡泽县,54640,36.8903,114.8728,36.6
54644,2022-08-08 21:00:00,1005.7,1007.1,1005.7,1004.9,1.7,4.5,347,344,2.6,14,21.1,21.3,21.1,96,96,0.1,2,21.77,孟村,中国,河北省,沧州市,孟村回族自治县,54644,38.0555,117.1239,10.5
54700,2022-08-08 21:00:00,1006.0,1008.0,1006.0,1005.4,3.2,4.7,338,346,2.1,329,19.2,19.2,18.6,89,88,0.0,1,19.5,武强,中国,河北省,衡水市,武强县,54700,38.0333,115.9333,16.2
54701,2022-08-08 21:00:00,1004.0,1008.3,1004.7,1004.0,1.5,4.8,49,46,0.7,12,18.9,19.2,18.9,93,91,0.4,1,19.27,辛集,中国,河北省,石家庄市,辛集市,54701,37.9333,115.2,35.9
54702,2022-08-08 21:00:00,1005.1,1007.6,1005.3,1005.0,3.1,6.7,16,20,3.2,17,19.3,19.5,19.3,91,90,0.0,2,19.66,衡水,中国,河北省,衡水市,桃城区,54702,37.7333,115.7,20.7
54703,2022-08-08 21:00:00,1005.1,1007.7,1005.2,1004.9,3.7,6.4,14,331,1.7,10,19.4,19.5,19.2,89,89,0.0,2,19.72,武邑,中国,河北省,衡水市,武邑县,54703,37.7858,115.9044,20.7
54704,2022-08-08 21:00:00,1004.5,1007.5,1004.5,1004.3,3.5,6.2,347,345,2.8,347,19.7,19.8,19.7,93,93,0.0,2,20.15,冀州,中国,河北省,衡水市,冀州区,54704,37.5122,115.5614,24.8
54705,2022-08-08 21:00:00,1004.2,1007.5,1004.4,1004.1,3.5,7.1,344,356,2.0,348,19.4,19.8,19.4,93,93,0.0,2,19.82,南宫,中国,河北省,邢台市,南宫市,54705,37.3667,115.3833,27.4
54706,2022-08-08 21:00:00,1003.1,1006.6,1003.1,1002.9,3.5,7.1,8,1,2.4,7,20.0,20.3,20.0,96,96,0.0,2,20.56,清河,中国,河北省,邢台市,清河县,54706,37.0833,115.6667,31.5
54707,2022-08-08 21:00:00,1003.7,1007.0,1003.7,1003.5,4.3,7.1,15,8,3.5,12,20.2,20.6,20.2,92,92,0.0,3,20.68,故城,中国,河北省,衡水市,故城县,54707,37.35,115.9833,27.4
54708,2022-08-08 21:00:00,1004.3,1007.2,1004.4,1004.1,3.8,7.3,7,26,3.0,10,19.9,20.3,19.9,92,91,0.0,2,20.35,枣强,中国,河北省,衡水市,枣强县,54708,37.5,115.7333,23.6
54710,2022-08-08 21:00:00,1005.4,1007.4,1005.4,1005.0,3.7,5.7,8,340,1.6,24,19.3,19.7,19.3,100,100,0.0,2,19.9,阜城,中国,河北省,衡水市,阜城县,54710,37.8447,116.1506,15.8
54711,2022-08-08 21:00:00,1004.7,1006.6,1004.8,1004.6,3.6,6.4,4,358,2.6,9,20.1,20.1,19.8,100,100,0.0,2,20.78,景县,中国,河北省,衡水市,景县,54711,37.6686,116.265,15.0
54713,2022-08-08 21:00:00,1005.2,1007.0,1005.3,1004.9,2.3,6.1,356,351,3.5,1,20.6,20.6,20.3,89,89,0.0,2,21.04,东光,中国,河北省,沧州市,东光县,54713,37.8833,116.5333,14.4
54717,2022-08-08 21:00:00,1004.5,1006.6,1004.6,1004.4,3.9,7.1,33,29,2.6,31,20.3,20.3,20.2,93,93,0.0,2,20.81,吴桥,中国,河北省,沧州市,吴桥县,54717,37.6333,116.4,17.1
54719,2022-08-08 21:00:00,1005.7,1007.1,1005.9,1005.2,3.4,6.3,350,356,2.6,356,20.2,20.3,20.1,89,89,0.0,2,20.6,南皮,中国,河北省,沧州市,南皮县,54719,38.0119,116.6822,10.8
54800,2022-08-08 21:00:00,1003.0,1007.0,1003.1,1002.9,3.8,6.7,346,3,3.7,3,19.7,19.9,19.7,100,100,0.1,2,20.34,威县,中国,河北省,邢台市,威县,54800,37.0,115.25,33.3
54801,2022-08-08 21:00:00,1002.6,1006.8,1002.6,1002.1,3.7,7.2,9,2,3.7,345,20.3,20.3,20.3,99,99,0.0,3,20.97,临西,中国,河北省,邢台市,临西县,54801,36.85,115.4833,35.3
54804,2022-08-08 21:00:00,1001.2,1006.6,1001.3,1001.0,3.6,6.7,344,353,3.0,343,20.4,20.5,20.4,94,94,0.0,2,20.95,大名,中国,河北省,邯郸市,大名县,54804,36.3042,115.1814,45.3
54809,2022-08-08 21:00:00,1001.6,1006.5,1001.7,1001.3,2.6,5.6,355,4,2.5,345,20.4,20.6,20.4,95,94,0.0,2,20.98,馆陶,中国,河北省,邯郸市,馆陶县,54809,36.55,115.2833,41.3
54820,2022-08-08 21:00:00,1002.5,1007.2,1002.5,1002.0,4.6,7.7,351,345,3.7,355,20.1,20.3,20.1,99,98,0.0,3,20.75,邱县,中国,河北省,邯郸市,邱县,54820,36.81,115.2078,39.0
53992,2022-08-08 21:00:00,999.2,1006.0,999.2,998.6,5.8,8.9,20,9,3.7,4,21.7,23.1,21.7,86,79,0.0,3,22.17,浚县,中国,河南省,鹤壁市,浚县,53992,35.6589,114.5183,58.2
53993,2022-08-08 21:00:00,1000.4,1006.5,1000.4,999.6,4.6,7.9,17,13,3.6,355,21.6,22.2,21.6,86,86,0.0,3,22.06,内黄,中国,河南省,安阳市,内黄县,53993,35.9425,114.91,51.6
53998,2022-08-08 21:00:00,998.3,1005.4,998.3,997.7,2.8,6.6,341,343,3.2,342,23.8,23.9,23.8,94,94,0.0,2,24.69,长垣,中国,河南省,新乡市,长垣县,53998,35.1933,114.6547,61.6
54817,2022-08-08 21:00:00,1000.6,1005.7,1000.7,1000.0,4.1,7.8,333,291,3.3,338,21.7,22.7,21.7,100,100,0.1,3,22.54,台前,中国,河南省,濮阳市,台前县,54817,35.9842,115.8619,42.1
54900,2022-08-08 21:00:00,999.6,1005.9,999.7,999.1,4.3,6.9,1,348,2.4,355,22.5,22.8,22.5,98,95,0.1,2,23.36,濮阳,中国,河南省,濮阳市,濮阳县,54900,35.6967,115.0317,53.7
54901,2022-08-08 21:00:00,1000.5,1006.0,1000.5,999.7,4.8,8.4,11,5,2.8,357,20.8,21.0,20.8,95,94,0.0,2,21.42,南乐,中国,河南省,濮阳市,南乐县,54901,36.0581,115.2414,46.6
54902,2022-08-08 21:00:00,1000.6,1006.4,1000.6,999.7,4.6,7.6,346,344,2.5,347,20.9,21.3,20.9,94,93,0.0,2,21.5,清丰,中国,河南省,濮阳市,清丰县,54902,35.9419,115.1428,49.3
54903,2022-08-08 21:00:00,1000.3,1005.7,1000.3,999.6,4.0,7.6,332,333,4.3,334,21.1,21.9,21.1,100,100,0.0,3,21.88,范县,中国,河南省,濮阳市,范县,54903,35.8492,115.4761,46.0
57093,2022-08-08 21:00:00,996.6,1004.8,996.6,996.2,4.1,7.1,8,28,3.8,22,23.6,23.9,23.6,95,94,0.0,3,24.5,兰考,中国,河南省,开封市,兰考县,57093,34.8611,114.7989,70.8
57096,2022-08-08 21:00:00,997.4,1004.3,997.4,997.0,2.9,5.8,3,16,2.4,30,24.6,24.7,24.6,94,94,0.0,2,25.57,杞县,中国,河南省,开封市,杞县,57096,34.5406,114.7819,59.7
57099,2022-08-08 21:00:00,997.7,1003.7,997.7,997.5,1.9,3.5,7,356,2.1,32,27.0,27.6,27.0,92,91,0.0,2,31.45,太康,中国,河南省,周口市,太康县,57099,34.0744,114.8497,52.6
58001,2022-08-08 21:00:00,997.6,1004.1,997.6,997.1,4.6,7.1,20,10,3.9,11,24.7,25.5,24.7,100,100,0.0,3,25.84,睢县,中国,河南省,商丘市,睢县,58001,34.4769,115.0325,56.1
58004,2022-08-08 21:00:00,997.0,1004.1,997.0,996.6,4.7,7.7,360,7,4.3,359,24.5,25.4,24.5,100,100,0.0,3,25.62,民权,中国,河南省,商丘市,民权县,58004,34.6194,115.1944,61.6
58005,2022-08-08 21:00:00,997.8,1003.7,997.8,997.3,3.1,4.7,340,356,2.9,1,26.6,27.0,26.6,93,92,0.0,2,29.85,商丘,中国,河南省,商丘市,梁园区,58005,34.4372,115.5353,50.8
58006,2022-08-08 21:00:00,997.9,1003.3,997.9,997.7,3.4,5.2,349,342,2.4,345,27.7,28.4,27.7,93,92,0.0,2,33.74,虞城,中国,河南省,商丘市,虞城县,58006,34.3903,115.8794,46.3
58007,2022-08-08 21:00:00,997.7,1003.0,997.8,997.6,1.3,2.0,20,341,1.1,4,27.4,27.7,27.4,100,100,0.0,1,34.25,柘城,中国,河南省,商丘市,柘城县,58007,34.0983,115.3592,45.7
58008,2022-08-08 21:00:00,997.5,1003.9,997.5,997.0,3.3,5.7,25,15,3.4,7,25.2,25.7,25.2,100,100,0.0,2,26.39,宁陵,中国,河南省,商丘市,宁陵县,58008,34.4867,115.3156,55.8
58017,2022-08-08 21:00:00,998.3,1003.2,998.3,998.0,1.8,2.4,278,287,0.6,317,28.4,29.3,28.3,97,92,0.0,1,37.06,夏邑,中国,河南省,商丘市,夏邑县,58017,34.2831,116.1508,42.6
