Station_Id_C,dt,PRS,PRS_Sea,PRS_Max,PRS_Min,WIN_S_Max,WIN_S_Inst_Max,WIN_D_INST_Max,WIN_D_Avg_2mi,WIN_S_Avg_2mi,WIN_D_S_Max,TEM,TEM_Max,TEM_Min,RHU,RHU_Min,PRE_1h,windpower,tigan,Station_Name,Country,Province,City,Cnty,Station_Id_d,Lat,Lon,Alti
58015,2022-08-08 19:00:00,998.1,1002.9,998.1,998.0,2.3,3.6,166,180,2.3,165,31.6,32.1,31.6,78,75,0.0,2,42.15,砀山,中国,安徽省,宿州市,砀山县,58015,34.4389,116.3397,42.1
58016,2022-08-08 19:00:00,999.4,1003.4,999.4,999.2,0.8,1.3,177,164,0.4,195,29.8,30.1,29.8,85,84,0.0,1,38.46,萧县,中国,安徽省,宿州市,萧县,58016,34.1803,116.9628,34.9
58116,2022-08-08 19:00:00,999.6,1003.4,999.6,999.4,1.3,1.9,194,178,1.4,184,30.0,30.1,30.0,93,93,0.0,1,41.81,淮北,中国,安徽省,淮北市,杜集区,58116,34.0333,116.8689,32.9
58012,2022-08-08 19:00:00,998.6,1003.4,998.6,998.5,0.7,1.0,184,172,0.3,185,29.0,29.2,29.0,100,100,0.0,1,40.2,丰县,中国,江苏省,徐州市,丰县,58012,34.6719,116.6561,42.0
58013,2022-08-08 19:00:00,999.1,1003.3,999.1,999.1,2.3,4.5,184,198,1.9,183,31.7,31.8,31.6,77,76,0.0,2,42.1,沛县,中国,江苏省,徐州市,沛县,58013,34.7533,116.9058,36.5
58026,2022-08-08 19:00:00,1000.7,1003.7,1000.7,1000.5,1.3,2.4,169,999017,0.1,178,30.3,30.4,30.0,95,95,0.0,1,43.73,邳州,中国,江苏省,徐州市,邳州市,58026,34.3942,118.0189,25.7
58027,2022-08-08 19:00:00,998.9,1003.6,998.9,998.7,2.0,5.2,197,189,1.5,193,31.9,32.2,31.9,75,72,0.0,2,41.98,徐州,中国,江苏省,徐州市,市辖区,58027,34.2872,117.1586,41.2
58035,2022-08-08 19:00:00,1000.4,1003.8,1000.5,1000.3,1.4,2.8,156,166,1.2,152,30.3,30.5,30.3,88,87,0.0,1,41.2,新沂,中国,江苏省,徐州市,新沂市,58035,34.3319,118.3536,29.3
58036,2022-08-08 19:00:00,999.9,1003.7,1000.2,999.9,1.6,2.9,172,157,1.4,156,30.6,30.8,30.5,85,82,0.0,1,41.25,东海,中国,江苏省,连云港市,东海县,58036,34.5425,118.7136,32.9
58038,2022-08-08 19:00:00,1002.8,1004.1,1002.9,1002.8,1.3,2.8,144,182,1.5,175,30.7,30.9,30.7,83,81,0.0,1,40.9,沭阳,中国,江苏省,宿迁市,沭阳县,58038,34.0911,118.7836,10.4
58040,2022-08-08 19:00:00,1002.7,1003.4,1003.3,1002.7,1.9,3.1,175,177,1.0,171,32.1,32.3,32.1,79,76,0.0,1,44.3,赣榆,中国,江苏省,连云港市,赣榆区,58040,34.8564,119.1269,5.3
58041,2022-08-08 19:00:00,1000.5,1003.6,1001.0,1000.5,5.6,8.6,175,191,5.5,190,32.6,33.1,32.6,67,66,0.0,3,41.03,西连岛,中国,江苏省,连云港市,连云区,58041,34.7778,119.4425,26.2
58044,2022-08-08 19:00:00,1003.2,1003.9,1003.4,1003.2,1.7,2.4,71,90,1.0,76,30.6,30.7,30.6,85,85,0.0,1,41.25,连云港,中国,江苏省,连云港市,市辖区,58044,34.5489,119.2347,4.7
58045,2022-08-08 19:00:00,1003.6,1004.3,1003.9,1003.6,1.7,3.4,183,159,1.3,158,30.5,31.0,30.5,79,77,0.0,1,38.92,响水,中国,江苏省,盐城市,响水县,58045,34.1142,119.3606,4.4
58047,2022-08-08 19:00:00,1003.3,1004.0,1003.6,1003.3,2.0,3.6,173,174,1.9,152,31.2,31.5,31.2,78,77,0.0,2,40.83,灌云,中国,江苏省,连云港市,灌云县,58047,34.2575,119.2361,4.8
58048,2022-08-08 19:00:00,1003.2,1004.2,1003.4,1003.1,2.8,4.1,163,174,2.2,168,30.7,31.1,30.7,87,85,0.0,2,42.33,灌南,中国,江苏省,连云港市,灌南县,58048,34.0639,119.2928,8.0
58049,2022-08-08 19:00:00,1004.0,1004.6,1004.3,1004.0,2.3,5.7,191,186,1.6,181,30.7,31.3,30.7,75,73,0.0,2,38.28,滨海,中国,江苏省,盐城市,滨海县,58049,34.0164,119.8031,4.1
54709,2022-08-08 19:00:00,1002.9,1005.9,1002.9,1002.8,3.9,6.2,360,5,3.9,5,21.2,21.8,21.2,100,100,0.1,2,21.99,武城,中国,山东省,德州市,武城县,54709,37.2333,116.0667,24.8
54712,2022-08-08 19:00:00,1003.0,1005.3,1003.0,1002.8,4.1,6.4,28,354,3.2,31,22.2,22.3,22.2,100,100,2.8,2,23.09,临邑,中国,山东省,德州市,临邑县,54712,37.2,116.8167,18.5
54714,2022-08-08 19:00:00,1002.9,1006.0,1002.9,1002.7,3.7,5.6,23,24,3.5,17,21.4,21.9,21.4,100,100,0.1,2,22.21,德州,中国,山东省,德州市,德城区,54714,37.35,116.3333,25.4
54715,2022-08-08 19:00:00,1003.7,1005.9,1003.7,1003.5,3.1,5.7,27,34,2.7,21,21.9,22.1,21.9,95,95,0.0,2,22.63,陵城,中国,山东省,临沂市,兰陵县,54715,37.3167,116.5167,17.6
54716,2022-08-08 19:00:00,1004.3,1006.4,1004.3,1003.2,3.5,6.8,354,355,2.6,359,20.7,21.1,20.7,97,97,13.3,2,21.36,宁津,中国,山东省,德州市,宁津县,54716,37.6667,116.8,17.3
54722,2022-08-08 19:00:00,1004.2,1005.1,1005.0,1004.1,4.4,7.2,68,57,3.3,62,22.2,22.2,21.7,100,100,2.1,3,23.09,无棣,中国,山东省,滨州市,无棣县,54722,37.75,117.6333,6.8
54723,2022-08-08 19:00:00,1004.0,1005.3,1004.7,1003.9,4.5,7.8,58,69,2.9,59,22.1,22.1,21.8,95,95,2.9,2,22.85,阳信,中国,山东省,滨州市,阳信县,54723,37.65,117.5667,10.1
54724,2022-08-08 19:00:00,1002.9,1004.7,1003.5,1002.9,3.9,6.1,26,58,3.6,33,22.1,22.1,22.0,97,96,5.0,2,22.9,商河,中国,山东省,济南市,商河县,54724,37.3167,117.1333,14.8
54725,2022-08-08 19:00:00,1003.5,1005.0,1004.2,1003.5,3.2,4.9,51,45,2.8,48,22.2,22.2,21.9,100,100,3.1,2,23.09,惠民,中国,山东省,滨州市,惠民县,54725,37.5,117.5333,11.7
54726,2022-08-08 19:00:00,1004.0,1005.5,1004.5,1003.9,3.0,5.7,79,14,2.3,60,21.8,21.8,21.6,100,100,3.3,2,22.65,乐陵,中国,山东省,德州市,乐陵市,54726,37.7,117.1833,11.5
54727,2022-08-08 19:00:00,974.2,1003.8,974.9,974.2,2.0,2.8,98,95,2.2,91,24.7,24.9,24.6,97,96,0.4,2,25.76,章丘,中国,山东省,济南市,章丘区,54727,36.65,117.5167,263.0
54728,2022-08-08 19:00:00,1004.0,1005.4,1004.7,1003.9,3.3,6.4,70,64,3.3,72,21.9,21.9,21.5,99,99,1.9,2,22.73,庆云,中国,山东省,德州市,庆云县,54728,37.7667,117.35,10.5
54729,2022-08-08 19:00:00,1003.8,1005.3,1003.8,1003.4,2.9,4.3,59,68,1.4,56,23.8,23.9,23.8,96,95,0.5,2,24.74,高青,中国,山东省,淄博市,高青县,54729,37.1667,117.8667,11.5
54734,2022-08-08 19:00:00,1002.8,1005.0,1003.4,1002.8,4.1,6.1,56,61,2.1,54,23.6,23.6,22.7,97,96,1.1,2,24.55,滨州,中国,山东省,滨州市,滨城区,54734,37.35,118.0333,17.8
54736,2022-08-08 19:00:00,1004.4,1005.2,1005.1,1003.9,4.9,11.3,9,337,2.4,345,24.0,25.8,24.0,94,87,10.9,2,24.91,东营,中国,山东省,东营市,东营区,54736,37.4333,118.6667,6.0
54744,2022-08-08 19:00:00,1004.4,1005.5,1005.3,1004.4,3.8,9.0,289,53,2.1,298,23.3,24.7,23.3,95,89,16.6,2,24.17,垦利,中国,山东省,东营市,垦利区,54744,37.5833,118.55,8.5
54749,2022-08-08 19:00:00,999.1,1004.7,999.3,999.0,3.2,5.3,96,91,2.6,89,25.9,26.1,25.9,94,94,0.8,2,27.91,莱州,中国,山东省,烟台市,莱州市,54749,37.1833,119.95,48.4
54751,2022-08-08 19:00:00,1001.2,1005.9,1001.4,1001.2,5.3,8.3,60,83,5.1,79,22.5,23.6,22.5,100,100,3.9,3,23.42,长岛,中国,山东省,烟台市,长岛县,54751,37.9392,120.7256,39.7
54752,2022-08-08 19:00:00,999.2,1006.3,999.2,998.9,3.8,6.8,65,83,1.9,70,23.1,24.4,23.1,96,95,8.3,2,23.97,蓬莱,中国,山东省,烟台市,蓬莱市,54752,37.8,120.7667,60.7
54753,2022-08-08 19:00:00,1005.1,1005.8,1005.5,1005.1,3.0,5.7,68,75,2.3,68,25.0,25.4,25.0,100,100,11.3,2,26.17,龙口,中国,山东省,烟台市,龙口市,54753,37.6333,120.3333,4.8
54755,2022-08-08 19:00:00,992.0,1005.5,992.4,992.0,2.1,2.7,82,31,1.2,114,25.3,25.5,25.3,97,95,3.0,1,26.42,招远,中国,山东省,烟台市,招远市,54755,37.3283,120.3869,117.8
54759,2022-08-08 19:00:00,982.4,1005.9,982.6,982.0,4.7,6.7,60,132,3.7,50,24.2,24.2,24.1,100,100,25.6,2,25.29,栖霞,中国,山东省,烟台市,栖霞市,54759,37.3247,120.8519,205.5
54764,2022-08-08 19:00:00,999.5,1005.8,999.8,999.3,3.2,7.4,44,43,4.0,54,24.7,25.4,24.7,94,93,13.9,2,25.68,福山,中国,山东省,烟台市,福山区,54764,37.4833,121.2333,53.9
54765,2022-08-08 19:00:00,996.4,1005.9,996.9,996.2,4.8,8.6,19,14,6.0,4,25.0,25.2,25.0,98,98,4.9,3,26.11,烟台,中国,山东省,烟台市,莱山区,54765,37.4833,121.4333,82.0
54776,2022-08-08 19:00:00,1000.2,1005.8,1000.3,1000.0,1.3,2.3,92,43,1.2,81,24.5,25.0,24.5,98,97,0.2,1,25.56,成山头,中国,山东省,威海市,荣成市,54776,37.4,122.7,47.7
54777,2022-08-08 19:00:00,991.9,1005.5,992.3,991.9,2.6,3.5,103,55,1.6,94,25.0,25.2,25.0,95,94,0.7,2,26.04,文登,中国,山东省,威海市,文登区,54777,37.2,122.0667,118.0
54802,2022-08-08 19:00:00,1001.6,1005.7,1001.7,1001.4,4.9,8.2,25,36,3.6,33,21.0,21.5,21.0,97,97,0.0,3,21.69,临清,中国,山东省,聊城市,临清市,54802,36.8167,115.7333,34.0
54806,2022-08-08 19:00:00,1000.7,1005.0,1000.9,1000.5,4.4,7.5,314,313,3.5,313,23.0,24.3,23.0,98,97,0.0,3,23.91,聊城,中国,山东省,聊城市,东昌府区,54806,36.3494,115.9761,36.1
54807,2022-08-08 19:00:00,1000.4,1005.2,1000.4,1000.0,5.2,7.9,349,358,4.6,349,22.2,23.3,22.2,100,100,0.0,3,23.09,阳谷,中国,山东省,聊城市,阳谷县,54807,36.15,115.7667,41.2
54808,2022-08-08 19:00:00,1001.1,1005.7,1001.2,1000.9,5.2,8.3,334,338,5.2,327,21.4,22.4,21.4,98,98,0.0,3,22.15,莘县,中国,山东省,聊城市,莘县,54808,36.2156,115.6267,38.7
54812,2022-08-08 19:00:00,1001.0,1004.0,1001.6,1001.0,2.7,4.7,31,20,2.9,13,24.0,24.7,24.0,100,100,0.0,2,25.07,齐河,中国,山东省,德州市,齐河县,54812,36.7333,116.7167,24.7
54814,2022-08-08 19:00:00,1001.3,1004.8,1001.3,1000.9,3.1,4.9,335,356,2.5,20,24.2,24.7,24.2,99,99,0.2,2,25.26,茌平,中国,山东省,聊城市,茌平县,54814,36.5333,116.25,29.7
54815,2022-08-08 19:00:00,1000.5,1004.2,1000.9,1000.5,1.8,3.5,338,327,2.3,318,25.3,25.3,25.2,99,99,0.2,2,26.47,东阿,中国,山东省,聊城市,东阿县,54815,36.3833,116.2667,31.4
54816,2022-08-08 19:00:00,992.8,1004.1,992.9,992.5,2.6,3.3,344,32,0.5,348,25.6,25.6,25.2,96,95,0.0,1,27.11,长清,中国,山东省,济南市,长清区,54816,36.5167,116.8,98.9
54818,2022-08-08 19:00:00,995.2,1004.4,995.8,995.0,2.8,4.2,336,328,1.1,336,25.3,25.7,25.3,97,97,3.5,2,26.42,平阴,中国,山东省,济南市,平阴县,54818,36.25,116.4167,79.9
54819,2022-08-08 19:00:00,990.8,1003.8,991.7,990.8,3.7,7.2,269,38,1.0,266,25.4,25.5,24.9,96,95,7.3,1,26.5,肥城,中国,山东省,泰安市,肥城市,54819,36.1833,116.8,113.6
54821,2022-08-08 19:00:00,1001.9,1004.4,1002.6,1001.9,2.5,4.1,47,48,2.5,52,23.8,24.0,23.8,95,94,0.0,2,24.72,济阳,中国,山东省,济南市,济阳县,54821,37.0,117.2,20.4
54822,2022-08-08 19:00:00,998.9,1004.4,999.5,998.9,1.3,2.4,295,999017,0.1,301,25.0,25.8,25.0,100,100,7.6,1,26.17,邹平,中国,山东省,滨州市,邹平县,54822,36.8667,117.7333,47.4
54823,2022-08-08 19:00:00,984.7,1004.0,985.2,984.5,1.7,3.5,356,347,1.9,43,25.6,25.6,25.2,95,95,0.0,2,27.1,济南,中国,山东省,济南市,市中区,54823,36.6019,117.0081,170.3
54824,2022-08-08 19:00:00,993.7,1004.6,993.9,993.7,1.9,3.7,351,331,1.2,342,26.0,26.2,26.0,92,92,0.0,2,28.11,淄川,中国,山东省,淄博市,淄川区,54824,36.6333,117.95,95.0
54825,2022-08-08 19:00:00,981.8,1003.3,982.1,981.6,1.0,1.6,1,70,1.0,2,25.4,25.4,25.4,81,81,0.0,1,26.11,博山,中国,山东省,淄博市,博山区,54825,36.5167,117.85,189.7
54826,2022-08-08 19:00:00,843.5,1005.5,844.2,843.5,6.8,14.6,229,211,7.2,213,21.6,21.9,21.5,100,100,0.1,4,22.43,泰山,中国,山东省,泰安市,泰山区,54826,36.25,117.1,1533.7
54827,2022-08-08 19:00:00,989.4,1004.0,989.9,989.2,1.7,2.7,52,99,1.4,104,25.3,25.4,25.3,96,95,0.0,2,26.39,泰安,中国,山东省,泰安市,泰山区,54827,36.1667,117.15,128.6
54828,2022-08-08 19:00:00,978.0,1003.8,978.4,978.0,1.0,1.8,11,154,1.0,21,26.1,26.1,25.3,87,87,0.0,1,28.16,莱芜,中国,山东省,莱芜市, ,54828,36.2333,117.6833,229.3
54829,2022-08-08 19:00:00,994.8,1004.7,995.2,994.7,2.3,3.5,333,25,1.5,343,24.9,25.2,24.9,95,94,0.1,2,25.93,周村,中国,山东省,淄博市,周村区,54829,36.7667,117.8667,85.7
54830,2022-08-08 19:00:00,1000.6,1004.7,1000.9,1000.5,1.9,3.3,359,13,1.2,1,25.1,25.2,25.0,95,94,0.0,1,26.15,淄博,中国,山东省,淄博市,张店区,54830,36.8167,117.9333,34.4
54831,2022-08-08 19:00:00,992.2,1004.0,992.5,992.0,1.0,1.2,8,115,0.8,16,26.2,26.4,26.2,93,92,0.0,1,28.71,青州,中国,山东省,潍坊市,青州市,54831,36.65,118.5,102.5
54832,2022-08-08 19:00:00,1001.5,1004.3,1001.8,1001.4,0.8,1.6,49,57,0.4,17,26.8,26.8,26.8,96,95,0.0,1,31.56,寿光,中国,山东省,潍坊市,寿光市,54832,36.8631,118.7953,23.4
54833,2022-08-08 19:00:00,1003.0,1004.9,1003.2,1002.9,1.3,3.7,24,999017,0.0,14,24.4,25.3,24.4,100,99,0.8,0,25.51,桓台,中国,山东省,淄博市,桓台县,54833,36.9667,118.0833,15.1
54834,2022-08-08 19:00:00,999.1,1004.5,999.2,999.1,2.4,3.4,8,9,1.7,355,25.7,26.0,25.7,95,93,0.0,2,27.38,临淄,中国,山东省,淄博市,临淄区,54834,36.8667,118.2833,46.3
54835,2022-08-08 19:00:00,987.4,1004.4,987.6,987.3,1.1,1.7,308,999017,0.0,292,26.3,26.3,26.2,90,90,0.0,1,28.81,临朐,中国,山东省,潍坊市,临朐县,54835,36.4733,118.5606,149.5
54836,2022-08-08 19:00:00,970.1,1004.1,970.5,970.1,1.2,2.6,304,15,1.6,333,26.2,26.2,25.9,98,96,0.5,1,28.97,沂源,中国,山东省,淄博市,沂源县,54836,36.1833,118.1667,305.1
54837,2022-08-08 19:00:00,995.1,1004.2,995.5,995.0,0.5,1.0,270,81,0.8,160,26.6,26.7,26.6,98,98,0.0,1,30.26,昌乐,中国,山东省,潍坊市,昌乐县,54837,36.6797,118.8361,78.8
54841,2022-08-08 19:00:00,1001.9,1004.7,1002.0,1001.5,2.9,4.4,92,22,1.7,91,26.9,26.9,26.8,97,96,0.0,2,32.04,昌邑,中国,山东省,潍坊市,昌邑市,54841,36.8617,119.4181,23.5
54842,2022-08-08 19:00:00,997.6,1004.8,997.7,997.3,2.6,4.5,61,84,1.9,64,26.6,26.8,26.6,99,97,6.0,2,30.34,平度,中国,山东省,青岛市,平度市,54842,36.7833,120.0,62.2
54843,2022-08-08 19:00:00,1001.8,1004.5,1002.1,1001.8,1.4,2.3,70,59,1.5,50,27.1,27.1,27.0,95,95,0.0,1,32.29,潍坊,中国,山东省,潍坊市,寒亭区,54843,36.75,119.2,22.2
54844,2022-08-08 19:00:00,996.6,1003.8,997.1,996.6,0.8,1.4,314,999017,0.0,310,26.7,26.8,26.7,99,99,0.0,0,31.76,安丘,中国,山东省,潍坊市,安丘市,54844,36.4167,119.1833,62.7
54846,2022-08-08 19:00:00,998.1,1004.1,999.5,998.1,5.4,5.1,275,119,1.8,256,25.8,26.2,25.5,97,94,18.7,2,27.7,高密,中国,山东省,潍坊市,高密市,54846,36.3853,119.7361,51.5
54848,2022-08-08 19:00:00,991.7,1004.1,992.0,991.6,1.0,1.6,209,999017,0.2,188,25.5,25.5,25.3,96,95,0.0,1,26.61,诸城,中国,山东省,潍坊市,诸城市,54848,35.9633,119.4847,109.0
54849,2022-08-08 19:00:00,994.8,1004.5,995.6,994.3,6.7,11.2,219,356,5.3,229,25.7,26.6,25.5,98,96,6.0,3,27.42,胶州,中国,山东省,青岛市,胶州市,54849,36.2167,120.0333,84.4
54851,2022-08-08 19:00:00,996.4,1005.3,996.5,996.1,1.8,2.6,75,7,1.9,29,26.2,26.2,26.0,98,98,0.0,2,28.97,莱西,中国,山东省,青岛市,莱西市,54851,36.9,120.5667,76.9
54852,2022-08-08 19:00:00,1000.2,1005.1,1000.4,1000.0,1.4,2.6,3,25,1.5,339,26.2,26.5,26.2,100,98,0.0,1,29.07,莱阳,中国,山东省,烟台市,莱阳市,54852,36.9667,120.7167,41.6
54853,2022-08-08 19:00:00,998.0,1004.3,998.4,997.6,2.5,3.3,299,273,0.9,288,26.1,26.2,25.7,98,97,0.6,1,28.65,崂山,中国,山东省,青岛市,李沧区,54853,36.1333,120.5167,54.0
54855,2022-08-08 19:00:00,1000.3,1005.9,1000.3,998.8,4.0,6.6,167,251,4.3,170,26.1,27.3,26.0,98,97,11.3,2,28.65,即墨,中国,山东省,青岛市,即墨区,54855,36.4,120.3833,47.8
54857,2022-08-08 19:00:00,996.4,1005.2,996.4,995.2,4.9,7.5,295,314,4.6,303,26.5,26.6,26.2,93,93,0.0,3,29.56,青岛,中国,山东省,青岛市,市南区,54857,36.0667,120.3333,76.0
54861,2022-08-08 19:00:00,999.6,1004.9,1000.1,999.6,1.6,3.3,92,87,1.9,88,26.4,26.5,26.4,91,91,0.0,2,29.14,乳山,中国,山东省,威海市,乳山市,54861,36.9333,121.5333,45.4
54863,2022-08-08 19:00:00,1000.1,1004.9,1000.6,1000.0,2.4,3.2,80,90,1.6,78,26.4,26.4,26.3,97,97,0.4,1,29.54,海阳,中国,山东省,烟台市,海阳市,54863,36.775,121.1783,40.9
54871,2022-08-08 19:00:00,1004.3,1005.6,1004.6,1004.3,2.1,3.6,35,42,1.8,31,25.4,25.5,25.4,100,100,0.1,2,26.61,石岛,中国,山东省,威海市,荣成市,54871,36.9333,122.4833,9.8
54904,2022-08-08 19:00:00,999.6,1005.4,999.7,999.4,4.6,7.2,351,352,3.6,347,23.4,24.1,23.4,94,92,0.0,3,24.25,鄄城,中国,山东省,菏泽市,鄄城县,54904,35.5833,115.5167,50.1
54905,2022-08-08 19:00:00,999.6,1005.0,999.6,999.4,3.1,6.2,312,347,3.2,303,24.7,26.1,24.7,95,92,0.0,2,25.71,郓城,中国,山东省,菏泽市,郓城县,54905,35.5833,115.9333,46.2
54906,2022-08-08 19:00:00,999.1,1005.0,999.1,998.9,4.3,8.0,335,341,3.9,328,23.8,24.7,23.8,94,93,0.0,3,24.69,菏泽,中国,山东省,菏泽市,牡丹区,54906,35.3167,115.5333,50.7
54907,2022-08-08 19:00:00,999.2,1003.2,999.3,999.0,1.6,3.0,309,298,1.5,305,30.6,30.7,30.5,86,86,0.0,1,41.6,鱼台,中国,山东省,济宁市,鱼台县,54907,34.9833,116.65,34.3
54908,2022-08-08 19:00:00,998.1,1004.7,998.4,998.1,3.8,7.1,360,355,4.1,348,23.8,23.9,23.8,90,89,0.0,2,24.59,东明,中国,山东省,菏泽市,东明县,54908,35.2667,115.1,57.3
54909,2022-08-08 19:00:00,998.6,1004.6,998.7,998.6,3.2,5.6,321,323,3.2,316,25.3,26.1,25.3,92,91,0.0,2,26.29,定陶,中国,山东省,菏泽市,定陶区,54909,35.0833,115.5167,51.5
54910,2022-08-08 19:00:00,999.8,1004.6,999.9,999.7,4.0,5.9,315,319,3.3,309,25.0,26.5,25.0,100,100,0.0,2,26.17,梁山,中国,山东省,济宁市,梁山县,54910,35.8125,116.0533,40.9
54911,2022-08-08 19:00:00,999.0,1004.1,999.3,998.9,1.1,2.2,339,297,1.0,332,26.1,26.1,25.8,97,97,0.0,1,28.61,东平,中国,山东省,泰安市,东平县,54911,35.9333,116.4,44.0
54912,2022-08-08 19:00:00,999.1,1004.0,999.4,999.1,2.1,2.3,303,322,0.9,299,25.9,26.0,25.8,96,95,0.0,1,27.97,汶上,中国,山东省,济宁市,汶上县,54912,35.7667,116.5,41.8
54913,2022-08-08 19:00:00,995.8,1003.6,996.4,995.8,3.0,5.4,291,325,1.0,312,25.8,26.2,25.8,91,89,0.0,1,27.56,宁阳,中国,山东省,泰安市,宁阳县,54913,35.7953,116.8067,67.6
54914,2022-08-08 19:00:00,999.7,1004.4,999.7,999.5,3.2,5.6,343,347,2.7,358,26.6,27.1,26.6,100,99,0.0,2,30.43,巨野,中国,山东省,菏泽市,巨野县,54914,35.4167,116.0833,40.6
54915,2022-08-08 19:00:00,999.3,1003.2,999.3,999.1,3.7,5.9,332,315,3.3,334,27.1,27.7,27.1,93,90,0.0,2,31.92,济宁,中国,山东省,济宁市,任城区,54915,35.4411,116.6014,33.3
54916,2022-08-08 19:00:00,997.9,1002.9,998.1,997.6,3.1,4.8,331,308,2.5,330,27.5,28.5,27.5,86,85,0.0,2,31.72,兖州,中国,山东省,济宁市,兖州区,54916,35.5333,116.8333,43.3
54917,2022-08-08 19:00:00,999.6,1003.8,999.7,999.4,3.4,5.3,318,316,2.6,322,27.3,27.5,27.3,92,90,0.0,2,32.32,金乡,中国,山东省,济宁市,金乡县,54917,35.1333,116.3333,35.8
54918,2022-08-08 19:00:00,996.5,1003.6,996.6,996.1,2.6,4.3,312,293,2.8,291,28.0,29.0,28.0,86,85,0.0,2,33.11,曲阜,中国,山东省,济宁市,曲阜市,54918,35.6,116.9733,62.3
54919,2022-08-08 19:00:00,993.3,1003.5,993.3,993.0,1.5,2.5,251,255,1.2,258,30.5,31.1,30.4,80,76,0.0,1,39.24,邹城,中国,山东省,济宁市,邹城市,54919,35.3667,116.9833,89.8
54920,2022-08-08 19:00:00,990.9,1003.4,991.0,990.9,1.1,1.6,360,12,0.4,350,27.9,27.9,27.9,88,86,0.0,1,33.26,泗水,中国,山东省,济宁市,泗水县,54920,35.65,117.2833,110.4
54921,2022-08-08 19:00:00,999.7,1004.0,999.8,999.6,2.3,3.7,340,303,2.5,324,27.2,27.2,27.1,94,91,0.0,2,32.4,嘉祥,中国,山东省,济宁市,嘉祥县,54921,35.4333,116.2833,37.1
54922,2022-08-08 19:00:00,980.6,1003.7,980.6,980.3,1.8,2.9,6,77,1.0,125,27.9,27.9,27.6,96,96,0.0,2,35.06,新泰,中国,山东省,泰安市,新泰市,54922,35.8667,117.75,206.0
54923,2022-08-08 19:00:00,971.7,1003.7,971.7,971.4,3.0,4.0,99,77,2.4,98,27.0,27.2,27.0,98,97,0.0,2,32.53,蒙阴,中国,山东省,临沂市,蒙阴县,54923,35.7333,117.95,286.5
54925,2022-08-08 19:00:00,985.3,1003.4,985.4,985.3,2.6,3.5,129,131,1.9,135,28.3,28.7,28.3,100,100,0.0,2,37.49,平邑,中国,山东省,临沂市,平邑县,54925,35.5,117.6833,161.2
54927,2022-08-08 19:00:00,994.3,1002.8,994.6,994.3,2.4,4.3,194,184,2.1,190,31.3,31.3,30.8,78,78,0.0,2,41.15,滕州,中国,山东省,枣庄市,滕州市,54927,35.1,117.2,74.9
54929,2022-08-08 19:00:00,985.3,1003.6,985.6,985.2,2.5,3.0,114,109,2.4,114,29.2,29.8,29.2,88,83,0.0,2,37.34,费县,中国,山东省,临沂市,费县,54929,35.2667,117.9667,121.2
54932,2022-08-08 19:00:00,982.7,1004.0,983.1,982.6,1.0,2.1,37,33,1.7,30,26.0,26.2,26.0,92,90,0.0,1,28.11,沂水,中国,山东省,临沂市,沂水县,54932,35.7667,118.65,186.7
54935,2022-08-08 19:00:00,990.4,1003.9,990.8,990.4,1.4,2.2,68,999017,0.1,66,27.7,28.0,27.7,81,76,0.0,1,31.5,沂南,中国,山东省,临沂市,沂南县,54935,35.5333,118.4333,119.4
54936,2022-08-08 19:00:00,991.7,1003.7,992.1,991.6,1.2,2.2,13,71,0.6,360,27.2,27.5,27.2,100,100,0.0,1,33.57,莒县,中国,山东省,日照市,莒县,54936,35.5667,118.8333,107.4
54938,2022-08-08 19:00:00,989.7,1003.7,990.1,989.7,3.9,4.4,33,45,1.7,32,28.4,28.4,28.2,93,93,0.0,2,36.01,临沂,中国,山东省,临沂市,兰山区,54938,35.25,118.4167,124.0
54939,2022-08-08 19:00:00,990.9,1003.7,991.4,990.9,1.2,1.6,140,203,0.5,189,29.9,30.4,29.9,88,85,0.0,1,39.75,莒南,中国,山东省,临沂市,莒南县,54939,35.1667,118.8167,113.8
54940,2022-08-08 19:00:00,987.4,1004.1,987.6,987.2,0.5,0.0,999017,999017,0.0,208,26.9,26.9,26.8,99,98,0.0,0,32.4,五莲,中国,山东省,日照市,五莲县,54940,35.75,119.2,148.2
54943,2022-08-08 19:00:00,1003.5,1004.3,1003.8,1003.4,2.2,3.6,309,999017,0.0,308,27.2,27.2,26.9,100,100,0.0,0,33.57,黄岛,中国,山东省,青岛市,黄岛区,54943,35.8333,120.0333,5.7
54945,2022-08-08 19:00:00,996.8,1004.2,996.9,996.5,1.6,2.1,22,999017,0.0,26,28.3,28.6,28.3,99,98,0.0,1,37.22,日照,中国,山东省,日照市,东港区,54945,35.4667,119.55,64.4
58002,2022-08-08 19:00:00,998.7,1004.4,998.7,998.6,2.5,4.9,341,345,2.3,322,26.4,27.2,26.4,97,96,0.0,2,29.54,曹县,中国,山东省,菏泽市,曹县,58002,34.85,115.5833,49.0
58003,2022-08-08 19:00:00,998.9,1004.1,999.0,998.7,3.3,6.0,343,311,2.5,330,27.5,28.4,27.5,87,87,0.0,2,31.91,成武,中国,山东省,菏泽市,成武县,58003,34.95,115.8833,45.4
58011,2022-08-08 19:00:00,998.7,1004.0,998.7,998.4,2.5,4.9,312,22,1.7,325,28.5,29.3,28.5,89,88,0.0,1,35.33,单县,中国,山东省,菏泽市,单县,58011,34.8,116.0667,46.2
58020,2022-08-08 19:00:00,999.2,1003.3,999.3,999.2,1.4,2.3,115,128,0.9,107,29.3,29.7,29.3,91,89,0.0,1,38.56,微山,中国,山东省,济宁市,微山县,58020,34.7681,117.1403,35.5
58021,2022-08-08 19:00:00,994.1,1003.2,994.3,994.1,2.6,4.1,172,154,2.4,154,30.9,31.2,30.9,75,73,0.0,2,38.87,薛城,中国,山东省,枣庄市,薛城区,58021,34.7833,117.2833,80.5
58022,2022-08-08 19:00:00,994.1,1003.6,994.4,994.1,1.0,1.5,98,269,0.4,80,28.5,28.8,28.5,91,88,0.0,0,35.83,峄城,中国,山东省,枣庄市,峄城区,58022,34.7667,117.4833,83.4
58024,2022-08-08 19:00:00,994.8,1003.6,995.0,994.7,1.0,1.7,54,78,0.9,57,29.6,29.8,29.6,84,82,0.0,1,37.52,枣庄,中国,山东省,枣庄市,市中区,58024,34.8667,117.5833,77.7
58025,2022-08-08 19:00:00,1000.1,1003.5,1000.3,1000.1,0.4,1.0,333,999017,0.0,337,28.3,28.3,28.1,96,96,0.0,0,36.44,台儿庄,中国,山东省,枣庄市,台儿庄区,58025,34.6,117.7167,29.3
58030,2022-08-08 19:00:00,998.4,1003.5,998.7,998.4,1.1,1.8,179,175,1.0,176,30.3,30.3,29.7,90,90,0.0,1,41.9,兰陵,中国,山东省,临沂市,兰陵县,58030,34.8833,118.0167,44.5
58032,2022-08-08 19:00:00,993.5,1003.7,993.9,993.5,2.1,2.8,159,157,1.5,141,29.9,30.2,29.6,86,83,0.0,1,39.11,临沭,中国,山东省,临沂市,临沭县,58032,34.95,118.65,90.1
53688,2022-08-08 19:00:00,996.7,1008.4,996.8,996.6,3.0,5.8,16,338,2.5,360,22.7,23.0,22.7,75,73,0.0,2,22.98,行唐,中国,河北省,石家庄市,行唐县,53688,38.4186,114.5464,100.3
53689,2022-08-08 19:00:00,1003.3,1008.4,1003.3,1002.6,2.3,6.0,60,92,1.4,63,21.6,22.7,21.6,81,74,0.0,1,21.93,晋州,中国,河北省,石家庄市,晋州市,53689,38.0167,115.0667,42.4
53691,2022-08-08 19:00:00,999.9,1008.2,1000.0,999.7,1.9,4.3,328,322,1.5,331,23.0,23.0,22.9,77,77,0.0,1,23.37,正定,中国,河北省,石家庄市,正定县,53691,38.15,114.5667,71.0
53695,2022-08-08 19:00:00,1000.6,1008.2,1000.7,1000.5,2.4,3.9,17,41,1.7,47,23.1,23.6,23.1,72,70,0.0,2,23.35,新乐,中国,河北省,石家庄市,新乐市,53695,38.35,114.6833,70.8
53697,2022-08-08 19:00:00,1001.7,1008.0,1001.7,1001.5,0.8,2.4,9,999017,0.0,4,22.8,23.0,22.8,89,89,0.0,0,23.46,藁城,中国,河北省,石家庄市,藁城区,53697,38.0333,114.8333,53.5
53699,2022-08-08 19:00:00,1002.2,1007.9,1002.4,1002.2,3.4,5.8,42,62,2.7,54,22.6,23.1,22.6,72,71,0.0,2,22.8,无极,中国,河北省,石家庄市,无极县,53699,38.1833,114.95,45.4
53773,2022-08-08 19:00:00,999.0,1006.6,999.4,999.0,6.1,11.3,8,16,6.5,15,22.1,22.9,22.1,83,79,0.0,4,22.53,临漳,中国,河北省,邯郸市,临漳县,53773,36.2986,114.595,65.5
53784,2022-08-08 19:00:00,1003.4,1008.0,1003.5,1003.3,1.3,3.0,14,357,0.5,36,22.3,22.3,22.2,78,75,0.0,1,22.62,赵县,中国,河北省,石家庄市,赵县,53784,37.75,114.7833,38.5
53785,2022-08-08 19:00:00,1003.9,1008.1,1003.9,1003.6,3.4,6.0,17,2,1.2,14,21.7,22.0,21.7,82,78,0.0,2,22.07,柏乡,中国,河北省,邢台市,柏乡县,53785,37.5167,114.6667,35.0
53789,2022-08-08 19:00:00,1001.9,1008.2,1001.9,1001.6,1.1,2.4,34,356,1.0,359,23.2,23.5,23.1,85,83,0.0,1,23.79,栾城,中国,河北省,石家庄市,栾城区,53789,37.8833,114.6333,52.9
53790,2022-08-08 19:00:00,1002.6,1007.9,1002.6,1002.3,3.2,2.9,58,999017,0.2,52,21.8,22.4,21.8,89,79,0.0,0,22.36,高邑,中国,河北省,石家庄市,高邑县,53790,37.6347,114.6078,44.5
53794,2022-08-08 19:00:00,1004.4,1008.1,1004.5,1004.1,5.3,9.5,5,16,2.0,32,21.5,22.0,21.5,84,76,0.0,2,21.9,隆尧,中国,河北省,邢台市,隆尧县,53794,37.3903,114.7842,31.0
53796,2022-08-08 19:00:00,1004.4,1008.1,1004.4,1004.0,3.1,5.8,59,49,3.0,63,22.1,22.4,22.1,81,77,0.0,2,22.48,宁晋,中国,河北省,邢台市,宁晋县,53796,37.6178,114.8914,30.6
53799,2022-08-08 19:00:00,1004.5,1007.6,1004.8,1004.4,4.9,8.9,17,27,3.3,26,20.6,20.8,20.5,89,88,0.0,3,21.04,巨鹿,中国,河北省,邢台市,巨鹿县,53799,37.2378,114.9989,25.9
53883,2022-08-08 19:00:00,1003.0,1007.4,1003.2,1003.0,2.5,4.7,321,6,2.6,4,21.4,21.4,21.2,93,93,0.0,2,22.02,任县,中国,河北省,邢台市,任县,53883,37.1333,114.7,36.5
53891,2022-08-08 19:00:00,1001.8,1007.3,1002.1,1001.8,3.9,7.4,43,11,3.8,7,21.6,21.6,21.5,83,82,0.0,3,21.98,南和,中国,河北省,邢台市,南和县,53891,37.0167,114.6833,43.0
53893,2022-08-08 19:00:00,1002.6,1007.1,1002.9,1002.6,7.1,9.6,345,354,5.5,352,20.4,20.5,20.4,100,100,0.0,3,21.11,曲周,中国,河北省,邯郸市,曲周县,53893,36.7889,115.005,37.9
53896,2022-08-08 19:00:00,1000.5,1006.6,1000.9,1000.5,2.8,7.5,11,4,3.8,355,21.6,22.7,21.6,91,88,0.0,2,22.19,魏县,中国,河北省,邯郸市,魏县,53896,36.3278,114.9494,51.6
53899,2022-08-08 19:00:00,1001.3,1007.0,1001.7,1001.2,4.3,9.0,19,13,2.4,13,21.0,21.7,21.0,89,88,0.0,2,21.48,广平,中国,河北省,邯郸市,广平县,53899,36.4833,114.9667,48.5
53980,2022-08-08 19:00:00,1001.2,1007.1,1001.4,1001.1,5.3,10.2,4,8,3.7,5,21.2,22.1,21.2,85,82,0.0,3,21.59,肥乡,中国,河北省,邯郸市,肥乡区,53980,36.55,114.8,50.2
53996,2022-08-08 19:00:00,1000.3,1007.1,1000.6,1000.2,5.6,9.9,13,16,2.6,12,21.6,22.4,21.6,84,79,0.0,2,22.01,成安,中国,河北省,邯郸市,成安县,53996,36.45,114.65,57.9
54604,2022-08-08 19:00:00,1004.2,1007.9,1004.6,1004.1,3.3,5.7,70,85,1.7,73,21.7,22.3,21.7,72,68,0.0,2,21.81,安国,中国,河北省,保定市,安国市,54604,38.4047,115.2919,31.0
54606,2022-08-08 19:00:00,1005.9,1008.1,1006.1,1005.9,4.4,7.6,29,42,3.5,38,18.8,18.8,18.6,100,100,0.1,2,19.35,饶阳,中国,河北省,衡水市,饶阳县,54606,38.2231,115.7431,17.9
54608,2022-08-08 19:00:00,1004.3,1007.4,1005.2,1004.3,4.2,8.2,32,36,3.3,27,19.1,19.4,19.1,94,93,0.0,3,19.52,深州,中国,河北省,衡水市,深州市,54608,37.9903,115.5442,25.5
54609,2022-08-08 19:00:00,1005.5,1008.2,1005.9,1005.5,5.3,7.2,62,57,3.4,59,19.4,19.5,19.4,88,87,0.0,3,19.69,安平,中国,河北省,衡水市,安平县,54609,38.2306,115.5869,22.4
54614,2022-08-08 19:00:00,1006.7,1008.1,1007.4,1006.7,2.8,5.9,61,49,2.0,74,18.1,18.4,18.1,93,93,4.2,2,18.39,河间,中国,河北省,沧州市,河间市,54614,38.4197,116.0561,10.9
54616,2022-08-08 19:00:00,1006.6,1007.7,1007.2,1006.5,2.7,4.9,338,29,1.7,336,20.3,22.7,20.3,89,76,4.8,1,20.71,沧州,中国,河北省,沧州市,运河区,54616,38.35,116.85,8.0
54617,2022-08-08 19:00:00,1006.2,1007.9,1006.3,1006.1,4.3,7.8,29,46,1.9,26,18.6,20.1,18.6,94,84,3.0,2,18.97,献县,中国,河北省,沧州市,献县,54617,38.205,116.1706,13.3
54618,2022-08-08 19:00:00,1005.5,1007.2,1006.1,1005.5,4.0,7.7,10,10,3.5,359,20.5,21.6,20.5,85,83,0.0,2,20.83,泊头,中国,河北省,沧州市,泊头市,54618,38.0833,116.55,13.2
54620,2022-08-08 19:00:00,1005.5,1008.0,1005.9,1005.4,2.7,4.9,93,105,1.7,89,20.2,20.6,20.1,82,80,0.0,2,20.42,蠡县,中国,河北省,保定市,蠡县,54620,38.4833,115.5667,18.5
54621,2022-08-08 19:00:00,1003.5,1008.0,1003.6,1003.4,3.9,7.1,76,71,2.1,89,21.3,22.7,21.3,77,69,0.0,2,21.5,深泽,中国,河北省,石家庄市,深泽县,54621,38.1833,115.1833,38.1
54624,2022-08-08 19:00:00,1006.5,1007.2,1006.7,1006.4,2.3,3.7,337,8,0.4,339,22.9,22.9,22.7,86,84,0.1,1,23.49,黄骅,中国,河北省,沧州市,黄骅市,54624,38.4081,117.3214,4.5
54626,2022-08-08 19:00:00,1006.7,1008.5,1007.2,1006.7,3.0,5.7,56,78,1.8,79,18.8,18.9,18.8,91,91,0.1,2,19.11,肃宁,中国,河北省,沧州市,肃宁县,54626,38.4167,115.8167,13.9
54627,2022-08-08 19:00:00,1005.1,1006.2,1005.5,1005.0,5.7,8.7,35,36,5.1,36,22.0,22.4,22.0,88,87,0.6,4,22.55,盐山,中国,河北省,沧州市,盐山县,54627,38.0333,117.2333,8.2
54628,2022-08-08 19:00:00,1005.6,1006.3,1005.8,1005.5,3.5,5.3,49,7,2.5,58,22.2,22.4,22.1,94,92,0.7,2,22.93,海兴,中国,河北省,沧州市,海兴县,54628,38.0839,117.4136,5.0
54631,2022-08-08 19:00:00,1003.4,1007.2,1003.6,1003.3,4.5,7.2,354,351,3.6,350,19.7,20.0,19.7,96,92,0.0,2,20.23,广宗,中国,河北省,邢台市,广宗县,54631,37.0939,115.1314,31.4
54632,2022-08-08 19:00:00,1003.2,1007.3,1003.5,1003.2,3.1,6.6,346,350,2.6,348,20.2,20.3,20.1,99,98,0.0,2,20.86,平乡,中国,河北省,邢台市,平乡县,54632,37.0667,115.0333,34.0
54633,2022-08-08 19:00:00,1004.3,1007.5,1004.4,1004.2,3.8,5.7,3,352,2.2,3,19.7,19.7,19.5,100,100,0.0,2,20.34,新河,中国,河北省,邢台市,新河县,54633,37.5081,115.2706,26.1
54640,2022-08-08 19:00:00,1002.9,1007.3,1003.1,1002.8,5.1,9.2,356,4,3.7,14,21.0,21.1,20.8,84,83,0.0,3,21.35,鸡泽,中国,河北省,邯郸市,鸡泽县,54640,36.8903,114.8728,36.6
54644,2022-08-08 19:00:00,1005.4,1006.8,1005.4,1005.1,5.0,7.5,25,10,3.3,24,21.7,22.0,21.4,94,94,0.7,3,22.38,孟村,中国,河北省,沧州市,孟村回族自治县,54644,38.0555,117.1239,10.5
54700,2022-08-08 19:00:00,1005.5,1007.5,1005.8,1005.4,4.5,8.3,10,9,5.0,10,18.8,20.4,18.8,92,84,1.1,3,19.14,武强,中国,河北省,衡水市,武强县,54700,38.0333,115.9333,16.2
54701,2022-08-08 19:00:00,1003.9,1008.2,1003.9,1003.5,2.9,6.0,61,87,1.7,51,20.4,21.8,20.4,80,77,0.0,2,20.58,辛集,中国,河北省,石家庄市,辛集市,54701,37.9333,115.2,35.9
54702,2022-08-08 19:00:00,1004.7,1007.2,1005.1,1004.4,2.5,6.2,39,21,1.0,31,20.3,20.5,20.3,90,89,0.1,2,20.74,衡水,中国,河北省,衡水市,桃城区,54702,37.7333,115.7,20.7
54703,2022-08-08 19:00:00,1004.7,1007.2,1005.0,1004.5,3.5,6.6,8,12,3.2,5,19.6,20.0,19.6,93,93,0.2,2,20.04,武邑,中国,河北省,衡水市,武邑县,54703,37.7858,115.9044,20.7
54704,2022-08-08 19:00:00,1004.2,1007.2,1004.3,1004.1,5.8,9.5,40,25,1.9,35,20.7,20.7,20.4,93,93,0.0,2,21.25,冀州,中国,河北省,衡水市,冀州区,54704,37.5122,115.5614,24.8
54705,2022-08-08 19:00:00,1004.3,1007.6,1004.3,1004.1,2.6,5.4,12,356,1.4,3,19.7,19.9,19.7,97,96,0.0,2,20.26,南宫,中国,河北省,邢台市,南宫市,54705,37.3667,115.3833,27.4
54706,2022-08-08 19:00:00,1002.8,1006.3,1003.0,1002.8,3.5,7.0,3,9,3.3,349,20.2,20.4,20.2,97,97,0.1,2,20.81,清河,中国,河北省,邢台市,清河县,54706,37.0833,115.6667,31.5
54707,2022-08-08 19:00:00,1003.4,1006.7,1003.5,1003.3,4.5,7.6,360,24,4.0,8,20.7,21.1,20.7,97,96,0.1,3,21.36,故城,中国,河北省,衡水市,故城县,54707,37.35,115.9833,27.4
54708,2022-08-08 19:00:00,1004.1,1007.0,1004.2,1004.0,5.0,8.9,34,36,3.9,31,19.9,20.1,19.8,100,100,0.0,3,20.56,枣强,中国,河北省,衡水市,枣强县,54708,37.5,115.7333,23.6
54710,2022-08-08 19:00:00,1005.0,1007.0,1005.5,1005.0,2.7,5.1,38,17,1.8,26,20.3,20.5,20.3,100,100,0.4,2,21.0,阜城,中国,河北省,衡水市,阜城县,54710,37.8447,116.1506,15.8
54711,2022-08-08 19:00:00,1004.8,1006.7,1005.0,1004.7,3.8,7.7,28,17,2.7,30,20.8,21.1,20.7,100,100,0.5,2,21.55,景县,中国,河北省,衡水市,景县,54711,37.6686,116.265,15.0
54713,2022-08-08 19:00:00,1005.2,1007.0,1005.4,1005.1,3.0,6.3,349,11,2.3,351,20.6,21.1,20.6,94,94,0.2,2,21.17,东光,中国,河北省,沧州市,东光县,54713,37.8833,116.5333,14.4
54717,2022-08-08 19:00:00,1004.8,1006.9,1004.8,1004.6,4.0,7.9,33,29,2.4,37,21.0,21.0,20.9,95,95,1.2,2,21.64,吴桥,中国,河北省,沧州市,吴桥县,54717,37.6333,116.4,17.1
54719,2022-08-08 19:00:00,1005.8,1007.2,1005.9,1005.5,3.9,6.9,354,16,2.3,352,20.4,20.7,20.4,93,93,2.1,2,20.92,南皮,中国,河北省,沧州市,南皮县,54719,38.0119,116.6822,10.8
54800,2022-08-08 19:00:00,1003.0,1007.0,1003.1,1003.0,4.4,7.1,349,357,3.4,352,19.7,19.8,19.7,100,100,0.0,3,20.34,威县,中国,河北省,邢台市,威县,54800,37.0,115.25,33.3
54801,2022-08-08 19:00:00,1002.1,1006.3,1002.4,1002.1,4.4,8.1,334,338,4.1,340,20.2,20.3,20.2,99,99,0.1,3,20.86,临西,中国,河北省,邢台市,临西县,54801,36.85,115.4833,35.3
54804,2022-08-08 19:00:00,1001.1,1006.5,1001.4,1001.1,3.8,7.4,356,357,2.2,323,20.8,21.4,20.8,95,95,0.0,2,21.42,大名,中国,河北省,邯郸市,大名县,54804,36.3042,115.1814,45.3
54809,2022-08-08 19:00:00,1001.4,1006.3,1001.9,1001.4,2.8,6.9,333,351,1.7,350,20.6,21.0,20.6,96,94,0.0,2,21.22,馆陶,中国,河北省,邯郸市,馆陶县,54809,36.55,115.2833,41.3
54820,2022-08-08 19:00:00,1002.2,1006.9,1002.6,1002.2,5.2,7.9,347,343,3.7,345,20.0,20.3,20.0,99,99,0.0,2,20.64,邱县,中国,河北省,邯郸市,邱县,54820,36.81,115.2078,39.0
53992,2022-08-08 19:00:00,998.9,1005.7,999.4,998.8,5.2,9.2,360,359,4.8,1,23.7,23.8,23.7,82,82,0.0,3,24.27,浚县,中国,河南省,鹤壁市,浚县,53992,35.6589,114.5183,58.2
53993,2022-08-08 19:00:00,1000.1,1006.1,1000.6,999.9,5.7,8.8,340,7,4.8,3,22.9,23.3,22.9,88,86,0.0,4,23.54,内黄,中国,河南省,安阳市,内黄县,53993,35.9425,114.91,51.6
53998,2022-08-08 19:00:00,998.1,1005.2,998.3,998.1,2.6,5.4,12,348,2.8,340,23.9,24.2,23.9,96,96,0.0,2,24.85,长垣,中国,河南省,新乡市,长垣县,53998,35.1933,114.6547,61.6
54817,2022-08-08 19:00:00,1000.1,1005.1,1000.2,1000.0,3.4,6.4,320,312,2.8,321,23.5,24.3,23.5,100,100,0.0,2,24.52,台前,中国,河南省,濮阳市,台前县,54817,35.9842,115.8619,42.1
54900,2022-08-08 19:00:00,999.2,1005.5,999.7,998.9,5.1,9.7,355,12,3.8,337,23.0,23.0,22.9,98,97,0.1,3,23.91,濮阳,中国,河南省,濮阳市,濮阳县,54900,35.6967,115.0317,53.7
54901,2022-08-08 19:00:00,1000.2,1005.7,1000.5,1000.1,4.5,8.2,353,354,3.6,357,21.5,21.9,21.5,95,95,0.0,3,22.19,南乐,中国,河南省,濮阳市,南乐县,54901,36.0581,115.2414,46.6
54902,2022-08-08 19:00:00,1000.0,1005.8,1000.3,1000.0,4.6,9.2,345,348,3.4,341,22.2,22.4,22.2,92,92,0.0,3,22.88,清丰,中国,河南省,濮阳市,清丰县,54902,35.9419,115.1428,49.3
54903,2022-08-08 19:00:00,1000.2,1005.6,1000.2,999.9,4.1,8.4,327,339,2.5,333,22.2,22.8,22.2,100,100,0.0,2,23.09,范县,中国,河南省,濮阳市,范县,54903,35.8492,115.4761,46.0
57093,2022-08-08 19:00:00,996.3,1004.4,996.7,996.3,4.0,7.1,20,22,3.8,21,24.2,24.5,24.2,97,97,0.0,3,25.21,兰考,中国,河南省,开封市,兰考县,57093,34.8611,114.7989,70.8
57096,2022-08-08 19:00:00,997.2,1004.1,997.5,997.1,2.9,5.9,287,30,2.2,43,25.3,25.8,25.3,97,96,0.0,2,26.42,杞县,中国,河南省,开封市,杞县,57096,34.5406,114.7819,59.7
57099,2022-08-08 19:00:00,997.8,1003.8,998.1,997.7,2.4,4.6,32,30,1.4,51,28.5,29.4,28.5,90,87,0.0,2,35.58,太康,中国,河南省,周口市,太康县,57099,34.0744,114.8497,52.6
58001,2022-08-08 19:00:00,997.4,1003.9,997.8,997.4,4.1,6.0,8,26,3.6,21,25.9,26.6,25.9,100,100,0.0,3,28.09,睢县,中国,河南省,商丘市,睢县,58001,34.4769,115.0325,56.1
58004,2022-08-08 19:00:00,997.0,1004.1,997.2,997.0,4.1,6.1,8,19,3.0,5,25.8,26.5,25.8,100,100,0.0,2,27.77,民权,中国,河南省,商丘市,民权县,58004,34.6194,115.1944,61.6
58005,2022-08-08 19:00:00,998.1,1003.9,998.1,998.0,2.9,4.9,357,349,2.8,3,28.0,28.5,28.0,93,91,0.0,2,34.69,商丘,中国,河南省,商丘市,梁园区,58005,34.4372,115.5353,50.8
58006,2022-08-08 19:00:00,998.3,1003.7,998.3,997.9,3.1,4.7,304,339,3.6,335,29.4,30.4,29.3,92,85,0.0,2,39.22,虞城,中国,河南省,商丘市,虞城县,58006,34.3903,115.8794,46.3
58007,2022-08-08 19:00:00,998.3,1003.6,998.3,997.8,2.8,4.5,360,321,2.1,354,28.6,29.4,28.6,100,100,0.0,2,38.63,柘城,中国,河南省,商丘市,柘城县,58007,34.0983,115.3592,45.7
58008,2022-08-08 19:00:00,997.6,1004.0,997.6,997.5,3.3,4.9,8,40,2.5,25,26.8,27.5,26.8,100,100,0.0,2,32.25,宁陵,中国,河南省,商丘市,宁陵县,58008,34.4867,115.3156,55.8
58017,2022-08-08 19:00:00,998.4,1003.3,998.4,998.3,1.7,2.4,141,142,1.1,149,29.2,29.2,28.8,93,93,0.0,1,38.81,夏邑,中国,河南省,商丘市,夏邑县,58017,34.2831,116.1508,42.6
