Station_Id_C,dt,PRS,PRS_Sea,PRS_Max,PRS_Min,WIN_S_Max,WIN_S_Inst_Max,WIN_D_INST_Max,WIN_D_Avg_2mi,WIN_S_Avg_2mi,WIN_D_S_Max,TEM,TEM_Max,TEM_Min,RHU,RHU_Min,PRE_1h,windpower,tigan,Station_Name,Country,Province,City,Cnty,Station_Id_d,Lat,Lon,Alti
58015,2022-08-08,997.5,1002.3,997.5,997.2,4.6,7.2,180,190,3.9,201,31.2,31.3,30.4,71,69,0.0,3,38.46,砀山,中国,安徽省,宿州市,砀山县,58015,34.4389,116.3397,42.1
58016,2022-08-08,999.0,1003.0,999.0,998.7,3.5,5.9,183,190,3.4,180,32.4,32.4,30.9,68,68,0.0,2,40.83,萧县,中国,安徽省,宿州市,萧县,58016,34.1803,116.9628,34.9
58116,2022-08-08,999.2,1003.0,999.3,999.0,3.5,5.2,186,177,2.2,180,32.2,32.3,31.1,72,70,0.0,2,41.77,淮北,中国,安徽省,淮北市,杜集区,58116,34.0333,116.8689,32.9
58012,2022-08-08,998.0,1002.9,998.0,997.7,2.8,5.4,190,215,2.5,187,31.1,31.1,29.4,81,80,0.0,2,41.58,丰县,中国,江苏省,徐州市,丰县,58012,34.6719,116.6561,42.0
58013,2022-08-08,998.8,1003.0,998.8,998.4,2.4,4.3,206,199,1.5,200,31.6,31.6,30.8,70,70,0.0,1,39.26,沛县,中国,江苏省,徐州市,沛县,58013,34.7533,116.9058,36.5
58026,2022-08-08,1000.4,1003.4,1000.9,1000.3,2.4,3.5,199,193,2.2,208,32.5,32.5,31.3,70,70,0.0,2,41.91,邳州,中国,江苏省,徐州市,邳州市,58026,34.3942,118.0189,25.7
58027,2022-08-08,998.5,1003.2,998.5,998.3,2.0,4.1,199,196,1.8,205,33.1,33.1,31.8,62,61,0.0,2,40.52,徐州,中国,江苏省,徐州市,市辖区,58027,34.2872,117.1586,41.2
58035,2022-08-08,1000.4,1003.8,1000.8,1000.3,1.6,3.3,202,173,1.5,167,32.3,32.3,31.0,76,75,0.0,1,43.72,新沂,中国,江苏省,徐州市,新沂市,58035,34.3319,118.3536,29.3
58036,2022-08-08,1000.3,1004.1,1000.4,1000.1,2.9,5.1,197,184,1.8,187,31.4,31.4,30.5,78,77,0.0,2,41.48,东海,中国,江苏省,连云港市,东海县,58036,34.5425,118.7136,32.9
58038,2022-08-08,1003.1,1004.4,1003.4,1003.0,2.0,3.4,209,213,1.7,204,31.9,31.9,31.3,75,75,0.0,2,41.98,沭阳,中国,江苏省,宿迁市,沭阳县,58038,34.0911,118.7836,10.4
58040,2022-08-08,1003.3,1004.0,1003.3,1003.1,3.6,6.0,183,169,3.0,180,32.5,32.5,31.5,73,72,0.0,2,43.13,赣榆,中国,江苏省,连云港市,赣榆区,58040,34.8564,119.1269,5.3
58041,2022-08-08,1001.0,1004.1,1001.0,1000.7,5.3,6.9,217,213,4.7,211,32.9,32.9,32.3,65,64,0.0,3,41.12,西连岛,中国,江苏省,连云港市,连云区,58041,34.7778,119.4425,26.2
58044,2022-08-08,1003.7,1004.4,1003.8,1003.5,2.9,4.6,201,198,2.6,197,31.6,31.6,31.0,78,77,0.0,2,42.15,连云港,中国,江苏省,连云港市,市辖区,58044,34.5489,119.2347,4.7
58045,2022-08-08,1003.9,1004.6,1004.1,1003.9,2.3,4.1,176,205,1.8,178,31.2,31.2,30.5,80,79,0.0,2,41.55,响水,中国,江苏省,盐城市,响水县,58045,34.1142,119.3606,4.4
58047,2022-08-08,1003.6,1004.3,1003.8,1003.6,2.8,4.8,202,199,3.5,198,31.8,31.8,30.5,71,70,0.0,2,40.18,灌云,中国,江苏省,连云港市,灌云县,58047,34.2575,119.2361,4.8
58048,2022-08-08,1003.5,1004.5,1003.7,1003.5,3.0,4.9,196,197,3.2,189,32.1,32.1,30.6,76,75,0.0,2,43.05,灌南,中国,江苏省,连云港市,灌南县,58048,34.0639,119.2928,8.0
58049,2022-08-08,1004.4,1005.0,1004.5,1004.3,2.5,5.1,193,194,2.4,195,32.1,32.2,31.3,75,75,0.0,2,42.64,滨海,中国,江苏省,盐城市,滨海县,58049,34.0164,119.8031,4.1
54709,2022-08-08,1000.3,1003.2,1000.5,999.6,6.2,8.1,334,331,3.9,343,27.9,28.9,27.9,100,100,0.0,4,36.02,武城,中国,山东省,德州市,武城县,54709,37.2333,116.0667,24.8
54712,2022-08-08,1000.9,1003.1,1000.9,1000.3,1.4,2.9,360,357,2.1,354,29.7,29.7,29.1,93,93,0.0,1,40.66,临邑,中国,山东省,德州市,临邑县,54712,37.2,116.8167,18.5
54714,2022-08-08,1000.0,1003.0,1000.3,999.6,4.1,7.1,62,43,4.3,40,28.3,29.0,28.3,98,98,0.4,3,36.96,德州,中国,山东省,德州市,德城区,54714,37.35,116.3333,25.4
54715,2022-08-08,1001.2,1003.3,1001.3,1000.4,2.5,5.1,32,31,3.9,29,28.8,28.9,28.3,93,92,0.3,2,37.38,陵城,中国,山东省,临沂市,兰陵县,54715,37.3167,116.5167,17.6
54716,2022-08-08,1001.8,1003.9,1001.9,1000.9,4.0,6.3,73,111,2.8,64,26.8,27.3,26.7,95,93,3.2,2,31.39,宁津,中国,山东省,德州市,宁津县,54716,37.6667,116.8,17.3
54722,2022-08-08,1003.2,1004.1,1003.4,1002.4,4.3,6.4,69,60,3.3,69,26.4,26.4,26.0,100,100,12.1,2,29.74,无棣,中国,山东省,滨州市,无棣县,54722,37.75,117.6333,6.8
54723,2022-08-08,1003.4,1004.7,1003.4,1002.2,3.4,5.8,49,61,1.2,32,26.2,26.6,25.9,96,94,44.1,2,28.86,阳信,中国,山东省,滨州市,阳信县,54723,37.65,117.5667,10.1
54724,2022-08-08,1002.1,1003.9,1002.1,1000.9,5.0,10.2,35,32,5.5,31,27.4,28.8,27.4,94,92,0.1,3,33.01,商河,中国,山东省,济南市,商河县,54724,37.3167,117.1333,14.8
54725,2022-08-08,1003.1,1004.6,1003.2,1001.9,4.3,8.2,40,14,3.5,33,25.9,27.4,25.9,100,100,26.4,3,28.09,惠民,中国,山东省,滨州市,惠民县,54725,37.5,117.5333,11.7
54726,2022-08-08,1002.6,1004.0,1002.7,1002.0,4.4,7.5,17,73,3.8,91,26.3,26.7,26.3,100,100,15.1,2,29.41,乐陵,中国,山东省,德州市,乐陵市,54726,37.7,117.1833,11.5
54727,2022-08-08,973.9,1003.3,973.9,973.0,4.8,5.7,173,174,4.8,173,29.5,29.5,29.2,77,77,0.0,3,35.43,章丘,中国,山东省,济南市,章丘区,54727,36.65,117.5167,263.0
54728,2022-08-08,1002.9,1004.2,1002.9,1002.5,3.1,5.6,25,46,1.8,16,26.1,26.4,26.1,100,100,8.6,2,28.74,庆云,中国,山东省,德州市,庆云县,54728,37.7667,117.35,10.5
54729,2022-08-08,1002.2,1003.6,1002.3,1001.2,4.8,8.3,48,54,4.3,46,28.6,29.1,28.6,88,87,0.0,3,35.39,高青,中国,山东省,淄博市,高青县,54729,37.1667,117.8667,11.5
54734,2022-08-08,1001.7,1003.9,1001.7,1001.1,4.8,8.3,59,47,1.2,74,26.9,27.8,26.9,96,92,7.0,2,31.86,滨州,中国,山东省,滨州市,滨城区,54734,37.35,118.0333,17.8
54736,2022-08-08,1003.2,1004.0,1003.2,1002.6,4.6,9.7,32,37,3.3,25,27.7,28.0,27.7,91,89,0.3,3,33.31,东营,中国,山东省,东营市,东营区,54736,37.4333,118.6667,6.0
54744,2022-08-08,1003.1,1004.2,1003.1,1002.4,4.4,10.7,50,59,5.1,54,27.3,27.3,26.8,95,94,1.9,3,32.9,垦利,中国,山东省,东营市,垦利区,54744,37.5833,118.55,8.5
54749,2022-08-08,998.9,1004.5,998.9,997.6,4.3,9.3,14,54,3.3,20,27.6,30.2,27.6,88,77,0.3,3,32.39,莱州,中国,山东省,烟台市,莱州市,54749,37.1833,119.95,48.4
54751,2022-08-08,1000.5,1005.2,1000.6,999.9,8.0,12.5,46,34,5.3,41,25.3,25.3,24.6,100,100,5.1,4,26.5,长岛,中国,山东省,烟台市,长岛县,54751,37.9392,120.7256,39.7
54752,2022-08-08,998.1,1005.1,998.3,997.9,4.1,9.2,56,67,4.6,54,25.5,25.7,25.3,97,97,5.3,2,26.64,蓬莱,中国,山东省,烟台市,蓬莱市,54752,37.8,120.7667,60.7
54753,2022-08-08,1004.7,1005.4,1004.8,1004.1,5.7,10.3,46,68,2.3,41,25.3,25.9,25.3,100,100,35.7,2,26.5,龙口,中国,山东省,烟台市,龙口市,54753,37.6333,120.3333,4.8
54755,2022-08-08,991.6,1005.0,991.6,990.3,8.1,12.1,320,19,4.1,337,26.4,27.5,26.4,92,89,0.0,3,29.21,招远,中国,山东省,烟台市,招远市,54755,37.3283,120.3869,117.8
54759,2022-08-08,981.8,1005.1,981.8,980.5,7.7,13.0,29,9,5.4,23,25.8,28.1,25.8,96,94,0.0,4,27.68,栖霞,中国,山东省,烟台市,栖霞市,54759,37.3247,120.8519,205.5
54764,2022-08-08,998.5,1004.7,998.6,997.1,8.6,12.9,349,26,4.7,349,26.7,29.0,26.7,92,86,2.7,4,30.6,福山,中国,山东省,烟台市,福山区,54764,37.4833,121.2333,53.9
54765,2022-08-08,995.2,1004.6,995.2,993.9,6.3,11.7,357,355,7.6,357,26.8,28.9,26.8,93,87,0.5,4,31.05,烟台,中国,山东省,烟台市,莱山区,54765,37.4833,121.4333,82.0
54776,2022-08-08,998.8,1004.4,998.8,998.1,3.0,6.3,353,349,2.1,349,27.1,28.7,27.1,94,86,0.0,2,32.1,成山头,中国,山东省,威海市,荣成市,54776,37.4,122.7,47.7
54777,2022-08-08,990.9,1004.3,990.9,990.3,2.3,3.6,260,239,2.5,248,29.2,29.3,28.9,89,89,0.0,2,37.62,文登,中国,山东省,威海市,文登区,54777,37.2,122.0667,118.0
54802,2022-08-08,998.7,1002.7,998.7,997.7,1.6,2.5,183,79,1.0,150,29.4,30.0,29.4,94,91,0.0,1,39.85,临清,中国,山东省,聊城市,临清市,54802,36.8167,115.7333,34.0
54806,2022-08-08,998.4,1002.6,998.9,997.6,2.5,3.8,158,149,0.7,158,31.1,31.2,30.0,80,79,0.0,1,41.21,聊城,中国,山东省,聊城市,东昌府区,54806,36.3494,115.9761,36.1
54807,2022-08-08,997.6,1002.4,997.7,996.8,2.3,3.2,201,155,1.1,199,31.3,31.4,30.1,79,79,0.0,1,41.52,阳谷,中国,山东省,聊城市,阳谷县,54807,36.15,115.7667,41.2
54808,2022-08-08,998.1,1002.6,998.2,997.2,1.6,2.9,177,999017,0.0,174,30.2,30.3,29.8,84,83,0.0,0,39.51,莘县,中国,山东省,聊城市,莘县,54808,36.2156,115.6267,38.7
54812,2022-08-08,999.8,1002.7,1000.0,999.2,1.2,1.5,360,265,0.3,357,30.1,30.1,28.8,100,100,0.0,1,44.8,齐河,中国,山东省,德州市,齐河县,54812,36.7333,116.7167,24.7
54814,2022-08-08,999.1,1002.6,999.7,998.3,2.1,2.9,158,128,1.4,157,30.0,30.1,28.8,90,87,0.0,1,40.77,茌平,中国,山东省,聊城市,茌平县,54814,36.5333,116.25,29.7
54815,2022-08-08,999.1,1002.8,999.3,998.2,2.5,3.5,158,193,0.6,161,30.9,30.9,30.3,80,79,0.0,1,40.54,东阿,中国,山东省,聊城市,东阿县,54815,36.3833,116.2667,31.4
54816,2022-08-08,991.7,1002.9,991.8,990.9,3.1,4.6,159,134,0.8,163,30.5,30.5,30.1,76,76,0.0,1,38.0,长清,中国,山东省,济南市,长清区,54816,36.5167,116.8,98.9
54818,2022-08-08,993.9,1003.0,993.9,993.2,3.3,5.0,171,173,2.7,164,30.8,30.8,29.7,78,78,0.0,2,39.54,平阴,中国,山东省,济南市,平阴县,54818,36.25,116.4167,79.9
54819,2022-08-08,990.3,1003.2,990.4,989.5,0.6,1.1,8,999017,0.0,23,30.4,30.4,28.8,81,81,0.0,0,39.23,肥城,中国,山东省,泰安市,肥城市,54819,36.1833,116.8,113.6
54821,2022-08-08,1000.6,1003.0,1000.7,1000.0,0.7,1.5,343,85,1.3,38,29.4,29.4,28.7,89,88,0.0,1,38.31,济阳,中国,山东省,济南市,济阳县,54821,37.0,117.2,20.4
54822,2022-08-08,997.4,1002.9,997.4,996.9,0.9,1.6,102,302,0.5,90,30.4,30.6,30.2,86,81,0.0,0,40.87,邹平,中国,山东省,滨州市,邹平县,54822,36.8667,117.7333,47.4
54823,2022-08-08,983.9,1003.0,984.2,983.3,2.2,4.0,148,152,0.7,136,30.8,30.8,30.4,71,70,0.0,1,37.36,济南,中国,山东省,济南市,市中区,54823,36.6019,117.0081,170.3
54824,2022-08-08,992.6,1003.4,992.6,992.0,1.0,1.9,198,217,1.0,262,29.6,29.6,28.9,81,80,0.0,1,36.72,淄川,中国,山东省,淄博市,淄川区,54824,36.6333,117.95,95.0
54825,2022-08-08,981.1,1002.3,981.1,980.4,1.7,2.8,176,179,1.9,177,29.9,29.9,29.3,63,63,0.0,2,33.25,博山,中国,山东省,淄博市,博山区,54825,36.5167,117.85,189.7
54826,2022-08-08,844.2,1006.8,844.2,843.0,7.0,10.0,231,221,4.1,221,20.9,20.9,20.8,100,100,0.0,3,21.66,泰山,中国,山东省,泰安市,泰山区,54826,36.25,117.1,1533.7
54827,2022-08-08,989.2,1003.7,989.3,988.3,1.6,2.0,41,12,0.7,33,31.5,31.5,29.4,73,73,0.0,1,40.0,泰安,中国,山东省,泰安市,泰山区,54827,36.1667,117.15,128.6
54828,2022-08-08,978.0,1003.6,978.0,977.0,1.3,1.5,79,77,0.7,91,29.7,29.7,28.7,81,80,0.0,1,37.03,莱芜,中国,山东省,莱芜市, ,54828,36.2333,117.6833,229.3
54829,2022-08-08,993.5,1003.3,993.5,992.9,2.0,3.4,164,182,1.9,167,29.2,29.2,28.7,84,84,0.0,2,36.25,周村,中国,山东省,淄博市,周村区,54829,36.7667,117.8667,85.7
54830,2022-08-08,999.0,1003.0,999.1,998.6,1.6,2.8,174,228,0.8,175,29.1,29.3,28.9,88,84,0.0,1,37.01,淄博,中国,山东省,淄博市,张店区,54830,36.8167,117.9333,34.4
54831,2022-08-08,991.2,1002.9,991.2,990.8,1.6,2.3,166,169,1.2,157,29.5,29.5,28.0,81,81,0.0,1,36.42,青州,中国,山东省,潍坊市,青州市,54831,36.65,118.5,102.5
54832,2022-08-08,1000.4,1003.2,1000.5,1000.2,1.5,2.8,218,199,1.5,220,30.6,30.6,29.8,76,76,0.0,1,38.29,寿光,中国,山东省,潍坊市,寿光市,54832,36.8631,118.7953,23.4
54833,2022-08-08,1001.0,1002.8,1001.0,1000.7,0.7,1.9,205,202,1.0,169,31.5,31.6,31.5,75,75,0.0,1,40.71,桓台,中国,山东省,淄博市,桓台县,54833,36.9667,118.0833,15.1
54834,2022-08-08,997.5,1002.8,997.6,997.2,1.3,1.7,116,129,1.4,116,29.6,29.9,29.4,83,80,0.0,1,37.25,临淄,中国,山东省,淄博市,临淄区,54834,36.8667,118.2833,46.3
54835,2022-08-08,986.8,1003.7,986.9,986.3,2.0,3.6,188,204,1.9,193,29.6,29.6,28.3,79,79,0.0,2,36.21,临朐,中国,山东省,潍坊市,临朐县,54835,36.4733,118.5606,149.5
54836,2022-08-08,970.1,1004.2,970.2,969.6,1.1,2.1,56,81,0.4,61,28.4,28.4,27.5,87,87,0.0,1,34.52,沂源,中国,山东省,淄博市,沂源县,54836,36.1833,118.1667,305.1
54837,2022-08-08,994.3,1003.3,994.3,994.0,2.0,3.1,110,104,1.4,95,30.4,30.4,29.3,84,84,0.0,2,40.2,昌乐,中国,山东省,潍坊市,昌乐县,54837,36.6797,118.8361,78.8
54841,2022-08-08,1000.9,1003.7,1000.9,1000.6,2.1,3.4,199,207,0.9,184,29.6,29.6,29.0,88,86,0.0,1,38.7,昌邑,中国,山东省,潍坊市,昌邑市,54841,36.8617,119.4181,23.5
54842,2022-08-08,996.8,1003.9,996.8,996.2,1.6,2.9,254,293,0.7,248,30.0,30.0,29.8,86,86,0.0,1,39.46,平度,中国,山东省,青岛市,平度市,54842,36.7833,120.0,62.2
54843,2022-08-08,1000.9,1003.5,1000.9,1000.6,2.1,3.5,211,216,1.2,203,31.3,31.3,31.0,72,72,0.0,1,39.07,潍坊,中国,山东省,潍坊市,寒亭区,54843,36.75,119.2,22.2
54844,2022-08-08,996.4,1003.6,996.4,996.2,1.4,1.8,212,202,0.9,207,29.8,29.8,29.1,87,85,0.0,1,39.08,安丘,中国,山东省,潍坊市,安丘市,54844,36.4167,119.1833,62.7
54846,2022-08-08,997.8,1003.7,997.8,997.6,2.4,4.2,196,196,1.4,196,30.0,30.0,29.9,83,82,0.0,2,38.54,高密,中国,山东省,潍坊市,高密市,54846,36.3853,119.7361,51.5
54848,2022-08-08,991.6,1003.9,991.6,991.4,1.0,1.9,171,219,0.3,178,31.0,31.1,30.0,80,80,0.0,0,40.88,诸城,中国,山东省,潍坊市,诸城市,54848,35.9633,119.4847,109.0
54849,2022-08-08,994.4,1004.0,994.4,994.2,3.5,4.9,207,192,2.6,206,30.6,30.6,29.8,84,84,0.0,2,40.9,胶州,中国,山东省,青岛市,胶州市,54849,36.2167,120.0333,84.4
54851,2022-08-08,995.3,1004.1,995.4,995.1,2.3,3.8,222,243,1.2,230,29.5,29.5,29.4,92,92,0.0,1,39.59,莱西,中国,山东省,青岛市,莱西市,54851,36.9,120.5667,76.9
54852,2022-08-08,999.2,1004.0,999.2,998.6,1.6,2.9,233,999017,0.1,210,29.6,29.8,29.6,95,93,0.0,1,40.94,莱阳,中国,山东省,烟台市,莱阳市,54852,36.9667,120.7167,41.6
54853,2022-08-08,998.0,1004.2,998.1,997.7,1.4,2.7,151,98,2.0,111,30.8,30.8,29.6,88,88,0.0,1,43.09,崂山,中国,山东省,青岛市,李沧区,54853,36.1333,120.5167,54.0
54855,2022-08-08,998.7,1004.2,998.7,998.4,1.8,3.4,229,210,1.6,230,31.3,31.3,30.6,83,83,0.0,1,43.05,即墨,中国,山东省,青岛市,即墨区,54855,36.4,120.3833,47.8
54857,2022-08-08,995.5,1004.2,995.5,995.2,2.6,3.9,186,196,1.8,180,30.5,30.5,29.7,83,83,0.0,2,40.21,青岛,中国,山东省,青岛市,市南区,54857,36.0667,120.3333,76.0
54861,2022-08-08,999.0,1004.3,999.0,998.5,1.4,2.0,171,999017,0.2,170,30.4,30.4,30.0,84,84,0.0,1,40.2,乳山,中国,山东省,威海市,乳山市,54861,36.9333,121.5333,45.4
54863,2022-08-08,999.4,1004.2,999.5,999.1,0.5,1.0,191,88,0.3,56,30.0,30.0,29.4,91,91,0.0,1,41.11,海阳,中国,山东省,烟台市,海阳市,54863,36.775,121.1783,40.9
54871,2022-08-08,1003.0,1004.3,1003.0,1002.6,4.4,6.5,216,218,4.4,208,29.3,30.2,29.0,94,89,0.0,3,39.48,石岛,中国,山东省,威海市,荣成市,54871,36.9333,122.4833,9.8
54904,2022-08-08,996.6,1002.3,996.7,996.2,2.2,3.3,159,170,1.4,172,31.5,31.6,30.6,73,72,0.0,1,40.0,鄄城,中国,山东省,菏泽市,鄄城县,54904,35.5833,115.5167,50.1
54905,2022-08-08,997.5,1002.8,997.5,997.0,2.4,3.5,167,151,1.1,179,31.3,31.3,30.1,77,77,0.0,1,40.79,郓城,中国,山东省,菏泽市,郓城县,54905,35.5833,115.9333,46.2
54906,2022-08-08,996.2,1002.0,996.4,995.9,1.5,2.0,166,139,1.0,165,32.3,32.3,30.6,75,74,0.0,1,43.3,菏泽,中国,山东省,菏泽市,牡丹区,54906,35.3167,115.5333,50.7
54907,2022-08-08,998.7,1002.7,998.7,998.1,2.4,3.9,186,185,2.5,166,31.0,31.0,30.2,77,77,0.0,2,39.84,鱼台,中国,山东省,济宁市,鱼台县,54907,34.9833,116.65,34.3
54908,2022-08-08,995.0,1001.5,995.2,994.9,0.9,1.4,149,176,0.7,109,31.2,31.3,29.2,80,80,0.0,1,41.55,东明,中国,山东省,菏泽市,东明县,54908,35.2667,115.1,57.3
54909,2022-08-08,996.1,1002.0,996.4,996.0,1.9,3.0,188,197,2.3,181,30.9,31.0,29.5,81,81,0.0,2,40.89,定陶,中国,山东省,菏泽市,定陶区,54909,35.0833,115.5167,51.5
54910,2022-08-08,998.1,1002.8,998.1,997.3,2.8,3.7,177,166,1.5,188,30.9,30.9,30.3,83,82,0.0,1,41.61,梁山,中国,山东省,济宁市,梁山县,54910,35.8125,116.0533,40.9
54911,2022-08-08,998.1,1003.2,998.1,997.2,1.3,2.1,144,114,0.7,130,31.5,31.5,30.3,79,76,0.0,1,42.2,东平,中国,山东省,泰安市,东平县,54911,35.9333,116.4,44.0
54912,2022-08-08,998.1,1002.9,998.1,997.3,2.5,4.6,159,203,1.8,153,32.1,32.1,30.2,72,72,0.0,2,41.46,汶上,中国,山东省,济宁市,汶上县,54912,35.7667,116.5,41.8
54913,2022-08-08,995.3,1003.0,995.4,994.5,1.8,2.7,124,102,1.6,114,31.3,31.3,30.1,74,73,0.0,1,39.74,宁阳,中国,山东省,泰安市,宁阳县,54913,35.7953,116.8067,67.6
54914,2022-08-08,997.7,1002.4,998.0,997.5,2.1,4.1,191,219,1.7,186,31.4,31.4,30.1,82,81,0.0,2,43.02,巨野,中国,山东省,菏泽市,巨野县,54914,35.4167,116.0833,40.6
54915,2022-08-08,998.1,1001.9,998.2,997.5,1.7,3.9,250,226,1.7,277,32.5,32.6,31.5,65,65,0.0,1,40.0,济宁,中国,山东省,济宁市,任城区,54915,35.4411,116.6014,33.3
54916,2022-08-08,997.3,1002.3,997.3,996.5,3.3,4.9,199,189,2.4,174,32.1,32.2,30.9,73,73,0.0,2,41.85,兖州,中国,山东省,济宁市,兖州区,54916,35.5333,116.8333,43.3
54917,2022-08-08,998.4,1002.5,998.4,997.8,2.3,4.0,219,191,2.5,180,31.4,31.4,29.7,72,72,0.0,2,39.36,金乡,中国,山东省,济宁市,金乡县,54917,35.1333,116.3333,35.8
54918,2022-08-08,996.0,1003.1,996.0,995.2,2.5,4.9,219,222,2.8,207,32.5,32.5,31.6,68,68,0.0,2,41.13,曲阜,中国,山东省,济宁市,曲阜市,54918,35.6,116.9733,62.3
54919,2022-08-08,992.9,1003.1,992.9,992.4,2.7,4.3,176,175,2.1,184,31.7,31.8,30.3,72,72,0.0,2,40.24,邹城,中国,山东省,济宁市,邹城市,54919,35.3667,116.9833,89.8
54920,2022-08-08,991.0,1003.5,991.0,990.1,1.0,2.0,155,16,1.1,212,31.2,31.2,29.8,76,72,0.0,1,40.12,泗水,中国,山东省,济宁市,泗水县,54920,35.65,117.2833,110.4
54921,2022-08-08,998.1,1002.4,998.3,997.8,2.6,5.2,211,187,3.2,223,31.4,31.5,30.8,73,73,0.0,2,39.7,嘉祥,中国,山东省,济宁市,嘉祥县,54921,35.4333,116.2833,37.1
54922,2022-08-08,980.6,1003.7,980.6,979.6,2.2,3.6,136,127,1.6,135,29.6,29.6,28.5,84,84,0.0,2,37.52,新泰,中国,山东省,泰安市,新泰市,54922,35.8667,117.75,206.0
54923,2022-08-08,971.7,1003.6,971.7,970.9,2.5,3.6,112,111,1.4,106,29.9,29.9,28.6,81,81,0.0,1,37.64,蒙阴,中国,山东省,临沂市,蒙阴县,54923,35.7333,117.95,286.5
54925,2022-08-08,985.5,1003.6,985.5,984.8,2.8,3.8,137,115,2.6,127,30.2,30.2,28.7,100,100,0.0,2,45.24,平邑,中国,山东省,临沂市,平邑县,54925,35.5,117.6833,161.2
54927,2022-08-08,994.2,1002.7,994.2,993.9,2.6,4.5,222,200,2.4,173,31.4,31.4,30.8,73,73,0.0,2,39.7,滕州,中国,山东省,枣庄市,滕州市,54927,35.1,117.2,74.9
54929,2022-08-08,985.1,1003.4,985.1,984.8,3.8,5.5,198,196,3.2,193,31.0,31.0,29.4,79,79,0.0,2,40.52,费县,中国,山东省,临沂市,费县,54929,35.2667,117.9667,121.2
54932,2022-08-08,982.6,1003.7,982.6,982.3,1.9,3.9,168,151,1.3,165,30.5,30.5,29.2,84,83,0.0,1,40.55,沂水,中国,山东省,临沂市,沂水县,54932,35.7667,118.65,186.7
54935,2022-08-08,990.2,1003.7,990.2,989.9,1.1,2.4,180,195,1.5,195,31.3,31.4,30.2,76,76,0.0,1,40.44,沂南,中国,山东省,临沂市,沂南县,54935,35.5333,118.4333,119.4
54936,2022-08-08,991.8,1003.8,991.8,991.4,2.3,3.9,197,171,2.1,185,31.6,31.6,30.3,84,82,0.0,2,44.57,莒县,中国,山东省,日照市,莒县,54936,35.5667,118.8333,107.4
54938,2022-08-08,989.7,1003.7,989.7,989.5,1.9,2.7,201,188,1.9,193,31.8,31.8,30.4,78,77,0.0,2,42.84,临沂,中国,山东省,临沂市,兰山区,54938,35.25,118.4167,124.0
54939,2022-08-08,991.2,1004.0,991.2,991.0,2.0,4.0,170,171,2.9,169,32.1,32.1,30.2,75,75,0.0,2,42.64,莒南,中国,山东省,临沂市,莒南县,54939,35.1667,118.8167,113.8
54940,2022-08-08,987.4,1004.1,987.4,987.1,1.3,2.5,151,999017,0.0,151,31.3,31.3,30.1,80,79,0.0,0,41.89,五莲,中国,山东省,日照市,五莲县,54940,35.75,119.2,148.2
54943,2022-08-08,1003.3,1004.1,1003.4,1003.2,0.2,1.2,62,999017,0.1,999017,30.0,30.6,29.5,97,96,0.0,0,43.24,黄岛,中国,山东省,青岛市,黄岛区,54943,35.8333,120.0333,5.7
54945,2022-08-08,996.9,1004.3,996.9,996.7,1.6,2.3,238,248,1.9,231,31.8,31.8,30.2,77,77,0.0,2,42.44,日照,中国,山东省,日照市,东港区,54945,35.4667,119.55,64.4
58002,2022-08-08,996.8,1002.4,996.8,996.4,2.5,3.7,192,197,1.8,185,30.8,30.8,29.7,82,81,0.0,2,40.9,曹县,中国,山东省,菏泽市,曹县,58002,34.85,115.5833,49.0
58003,2022-08-08,997.4,1002.6,997.4,997.0,2.3,3.6,184,201,2.3,173,30.9,30.9,29.3,74,74,0.0,2,38.55,成武,中国,山东省,菏泽市,成武县,58003,34.95,115.8833,45.4
58011,2022-08-08,997.4,1002.7,997.4,996.7,3.0,5.2,162,195,2.7,201,30.5,30.6,30.1,74,73,0.0,2,37.41,单县,中国,山东省,菏泽市,单县,58011,34.8,116.0667,46.2
58020,2022-08-08,999.0,1003.1,999.0,998.7,2.3,4.7,192,196,2.2,189,31.5,31.5,31.3,70,69,0.0,2,38.97,微山,中国,山东省,济宁市,微山县,58020,34.7681,117.1403,35.5
58021,2022-08-08,993.9,1003.0,993.9,993.7,2.5,3.9,158,186,1.2,146,31.2,31.2,30.6,74,74,0.0,2,39.44,薛城,中国,山东省,枣庄市,薛城区,58021,34.7833,117.2833,80.5
58022,2022-08-08,993.9,1003.4,994.0,993.9,1.9,3.0,208,185,2.0,186,31.9,32.1,30.4,72,70,0.0,2,40.85,峄城,中国,山东省,枣庄市,峄城区,58022,34.7667,117.4833,83.4
58024,2022-08-08,994.5,1003.3,994.8,994.5,1.5,2.6,130,127,1.2,75,32.5,32.5,30.3,70,70,0.0,1,41.91,枣庄,中国,山东省,枣庄市,市中区,58024,34.8667,117.5833,77.7
58025,2022-08-08,1000.2,1003.6,1000.2,999.9,2.4,3.8,174,187,1.8,175,31.6,31.6,30.0,77,75,0.0,2,41.77,台儿庄,中国,山东省,枣庄市,台儿庄区,58025,34.6,117.7167,29.3
58030,2022-08-08,998.3,1003.4,998.6,998.3,2.6,4.0,206,226,1.4,233,32.0,32.0,30.9,77,76,0.0,2,43.12,兰陵,中国,山东省,临沂市,兰陵县,58030,34.8833,118.0167,44.5
58032,2022-08-08,993.9,1004.1,993.9,993.5,2.7,4.1,171,152,1.3,160,32.1,32.1,31.0,75,74,0.0,1,42.64,临沭,中国,山东省,临沂市,临沭县,58032,34.95,118.65,90.1
53688,2022-08-08,994.0,1005.5,994.0,992.7,2.0,4.8,54,64,2.2,51,28.3,28.3,28.0,89,89,0.0,2,34.7,行唐,中国,河北省,石家庄市,行唐县,53688,38.4186,114.5464,100.3
53689,2022-08-08,999.9,1004.8,999.9,999.0,2.9,4.8,14,31,1.6,13,28.5,28.5,28.3,100,100,0.0,2,38.24,晋州,中国,河北省,石家庄市,晋州市,53689,38.0167,115.0667,42.4
53691,2022-08-08,997.1,1005.3,997.1,996.2,1.7,3.3,352,335,0.8,325,28.6,28.7,28.5,89,88,0.0,1,35.64,正定,中国,河北省,石家庄市,正定县,53691,38.15,114.5667,71.0
53695,2022-08-08,997.8,1005.2,997.8,996.7,3.2,5.7,50,49,3.6,41,28.4,28.4,27.9,89,89,0.0,2,35.01,新乐,中国,河北省,石家庄市,新乐市,53695,38.35,114.6833,70.8
53697,2022-08-08,998.6,1004.8,998.6,997.8,1.9,4.5,15,37,0.9,31,28.2,28.2,28.2,92,92,0.1,1,35.1,藁城,中国,河北省,石家庄市,藁城区,53697,38.0333,114.8333,53.5
53699,2022-08-08,999.4,1005.0,999.4,998.2,4.2,6.3,21,39,4.5,28,28.1,28.1,28.1,92,92,0.0,3,34.78,无极,中国,河北省,石家庄市,无极县,53699,38.1833,114.95,45.4
53773,2022-08-08,995.1,1002.6,995.2,994.8,2.4,3.7,333,339,1.6,360,29.0,29.0,28.6,97,97,0.0,1,39.27,临漳,中国,河北省,邯郸市,临漳县,53773,36.2986,114.595,65.5
53784,2022-08-08,999.8,1004.3,999.9,998.9,2.0,5.5,2,11,1.0,4,28.3,28.3,28.3,92,91,0.0,1,35.43,赵县,中国,河北省,石家庄市,赵县,53784,37.75,114.7833,38.5
53785,2022-08-08,999.8,1003.9,999.9,999.3,2.1,3.9,335,358,2.3,359,28.3,28.3,27.9,99,99,0.0,2,37.22,柏乡,中国,河北省,邢台市,柏乡县,53785,37.5167,114.6667,35.0
53789,2022-08-08,998.5,1004.6,998.6,997.8,2.6,4.1,355,2,0.8,349,28.7,28.8,28.7,91,91,0.0,1,36.5,栾城,中国,河北省,石家庄市,栾城区,53789,37.8833,114.6333,52.9
53790,2022-08-08,998.8,1004.0,998.8,997.9,3.1,4.4,340,359,1.2,340,28.0,28.0,27.6,97,97,0.0,2,35.64,高邑,中国,河北省,石家庄市,高邑县,53790,37.6347,114.6078,44.5
53794,2022-08-08,1000.3,1004.0,1000.4,999.9,3.6,5.3,357,350,2.6,356,28.3,28.3,27.8,94,89,0.0,2,35.93,隆尧,中国,河北省,邢台市,隆尧县,53794,37.3903,114.7842,31.0
53796,2022-08-08,1000.5,1004.1,1000.6,999.9,2.5,5.8,357,45,2.5,336,28.6,28.6,28.4,99,99,0.0,2,38.34,宁晋,中国,河北省,邢台市,宁晋县,53796,37.6178,114.8914,30.6
53799,2022-08-08,1001.1,1004.2,1001.1,1000.1,3.7,7.2,17,36,1.4,3,26.7,26.7,26.1,99,99,1.5,2,31.76,巨鹿,中国,河北省,邢台市,巨鹿县,53799,37.2378,114.9989,25.9
53883,2022-08-08,999.1,1003.4,999.1,998.4,3.6,6.4,346,25,1.7,43,27.1,28.2,27.1,100,100,0.0,2,33.24,任县,中国,河北省,邢台市,任县,53883,37.1333,114.7,36.5
53891,2022-08-08,998.1,1003.5,998.1,997.2,5.6,8.4,360,19,3.5,1,28.5,28.9,28.5,87,86,0.0,3,34.83,南和,中国,河北省,邢台市,南和县,53891,37.0167,114.6833,43.0
53893,2022-08-08,999.2,1003.6,999.2,998.2,12.5,16.7,348,353,11.2,345,26.7,28.9,26.6,100,100,52.3,6,31.93,曲周,中国,河北省,邯郸市,曲周县,53893,36.7889,115.005,37.9
53896,2022-08-08,996.6,1002.5,996.8,996.3,0.5,0.9,342,186,0.5,343,29.3,29.3,29.2,98,96,0.0,1,40.75,魏县,中国,河北省,邯郸市,魏县,53896,36.3278,114.9494,51.6
53899,2022-08-08,997.3,1002.9,997.3,996.6,1.9,3.7,330,326,1.4,330,29.1,29.3,29.1,92,90,0.0,1,38.15,广平,中国,河北省,邯郸市,广平县,53899,36.4833,114.9667,48.5
53980,2022-08-08,997.3,1003.1,997.3,996.7,2.9,4.8,338,329,1.8,339,28.8,29.3,28.8,94,92,3.2,1,37.66,肥乡,中国,河北省,邯郸市,肥乡区,53980,36.55,114.8,50.2
53996,2022-08-08,996.3,1003.0,996.4,995.9,2.5,4.0,3,5,2.6,357,28.8,28.9,28.8,93,93,0.0,2,37.38,成安,中国,河北省,邯郸市,成安县,53996,36.45,114.65,57.9
54604,2022-08-08,1001.5,1005.2,1001.6,999.8,3.9,7.7,53,51,4.6,38,28.3,28.4,28.1,85,85,0.0,3,33.76,安国,中国,河北省,保定市,安国市,54604,38.4047,115.2919,31.0
54606,2022-08-08,1002.5,1004.7,1002.5,1001.3,4.0,7.0,40,38,4.4,35,28.4,28.4,28.3,97,97,0.0,3,37.06,饶阳,中国,河北省,衡水市,饶阳县,54606,38.2231,115.7431,17.9
54608,2022-08-08,1001.4,1004.4,1001.5,1000.6,3.0,5.1,23,26,2.6,28,28.6,28.6,28.5,96,95,0.0,2,37.5,深州,中国,河北省,衡水市,深州市,54608,37.9903,115.5442,25.5
54609,2022-08-08,1002.3,1005.0,1002.3,1001.0,3.0,5.7,18,20,3.8,16,28.6,28.7,28.4,90,90,0.0,2,35.9,安平,中国,河北省,衡水市,安平县,54609,38.2306,115.5869,22.4
54614,2022-08-08,1003.9,1005.3,1003.9,1002.1,3.3,7.7,37,31,3.1,30,28.3,28.4,28.3,89,89,0.0,2,34.7,河间,中国,河北省,沧州市,河间市,54614,38.4197,116.0561,10.9
54616,2022-08-08,1004.4,1005.4,1004.4,1003.3,4.6,8.9,70,76,5.1,75,27.4,27.4,27.3,89,89,0.2,3,32.02,沧州,中国,河北省,沧州市,运河区,54616,38.35,116.85,8.0
54617,2022-08-08,1003.1,1004.7,1003.1,1001.9,4.3,6.9,65,76,2.7,61,28.4,28.5,28.3,90,90,0.0,3,35.26,献县,中国,河北省,沧州市,献县,54617,38.205,116.1706,13.3
54618,2022-08-08,1003.3,1004.9,1003.3,1002.2,5.1,9.7,104,77,3.5,91,27.4,28.8,27.4,89,85,0.0,3,32.02,泊头,中国,河北省,沧州市,泊头市,54618,38.0833,116.55,13.2
54620,2022-08-08,1002.9,1005.4,1002.9,1001.1,4.7,8.9,56,50,4.7,59,28.3,28.5,28.3,82,82,0.0,3,33.21,蠡县,中国,河北省,保定市,蠡县,54620,38.4833,115.5667,18.5
54621,2022-08-08,1000.4,1004.9,1000.4,999.4,2.4,5.1,43,55,1.9,39,28.1,28.1,27.9,93,93,0.0,2,35.02,深泽,中国,河北省,石家庄市,深泽县,54621,38.1833,115.1833,38.1
54624,2022-08-08,1004.9,1005.5,1004.9,1003.8,7.5,12.7,80,77,7.8,72,27.5,27.6,27.4,78,78,0.0,4,30.64,黄骅,中国,河北省,沧州市,黄骅市,54624,38.4081,117.3214,4.5
54626,2022-08-08,1003.9,1005.6,1003.9,1002.2,3.8,8.2,61,53,2.7,52,28.5,28.6,28.5,88,87,0.0,2,35.08,肃宁,中国,河北省,沧州市,肃宁县,54626,38.4167,115.8167,13.9
54627,2022-08-08,1003.7,1004.8,1003.7,1003.0,4.7,8.1,74,77,5.8,76,26.6,26.6,26.1,96,95,1.9,3,30.1,盐山,中国,河北省,沧州市,盐山县,54627,38.0333,117.2333,8.2
54628,2022-08-08,1004.0,1004.7,1004.0,1003.5,7.6,13.0,71,73,6.6,76,26.7,26.7,26.1,93,93,1.1,4,30.77,海兴,中国,河北省,沧州市,海兴县,54628,38.0839,117.4136,5.0
54631,2022-08-08,1000.1,1003.8,1000.1,999.0,4.9,8.5,337,25,0.7,342,26.7,28.0,26.7,96,94,2.6,1,31.26,广宗,中国,河北省,邢台市,广宗县,54631,37.0939,115.1314,31.4
54632,2022-08-08,999.6,1003.6,999.7,998.7,3.3,8.0,9,17,0.3,343,26.9,27.1,26.7,99,99,1.8,1,32.4,平乡,中国,河北省,邢台市,平乡县,54632,37.0667,115.0333,34.0
54633,2022-08-08,1000.9,1004.0,1000.9,1000.1,3.4,5.7,346,24,2.8,360,28.2,28.3,28.2,100,100,0.0,2,37.11,新河,中国,河北省,邢台市,新河县,54633,37.5081,115.2706,26.1
54640,2022-08-08,999.3,1003.6,999.5,998.4,5.3,9.3,22,38,6.1,24,26.9,28.4,26.9,95,93,26.5,3,31.69,鸡泽,中国,河北省,邯郸市,鸡泽县,54640,36.8903,114.8728,36.6
54644,2022-08-08,1003.7,1005.0,1003.7,1002.6,3.6,5.8,68,55,3.2,75,26.7,26.7,26.1,98,97,3.2,3,31.6,孟村,中国,河北省,沧州市,孟村回族自治县,54644,38.0555,117.1239,10.5
54700,2022-08-08,1002.5,1004.5,1002.5,1001.4,3.4,6.2,16,43,2.7,24,28.4,28.4,28.4,92,92,0.0,2,35.76,武强,中国,河北省,衡水市,武强县,54700,38.0333,115.9333,16.2
54701,2022-08-08,1000.4,1004.6,1000.5,999.6,1.3,5.0,70,31,1.2,36,28.7,28.7,28.5,89,89,0.0,1,35.97,辛集,中国,河北省,石家庄市,辛集市,54701,37.9333,115.2,35.9
54702,2022-08-08,1001.5,1004.0,1001.5,1001.1,2.3,4.5,18,19,1.7,19,29.2,29.2,29.0,90,90,0.0,1,37.91,衡水,中国,河北省,衡水市,桃城区,54702,37.7333,115.7,20.7
54703,2022-08-08,1001.6,1004.1,1001.6,1001.1,4.0,6.0,15,15,4.3,14,28.6,28.6,28.5,94,94,0.0,3,36.96,武邑,中国,河北省,衡水市,武邑县,54703,37.7858,115.9044,20.7
54704,2022-08-08,1001.1,1004.1,1001.1,1000.4,3.3,4.9,75,84,2.3,73,27.8,27.9,27.7,97,96,0.1,2,34.96,冀州,中国,河北省,衡水市,冀州区,54704,37.5122,115.5614,24.8
54705,2022-08-08,1001.0,1004.2,1001.1,999.9,3.3,7.6,100,113,2.5,98,27.0,27.8,27.0,97,97,11.7,2,32.35,南宫,中国,河北省,邢台市,南宫市,54705,37.3667,115.3833,27.4
54706,2022-08-08,1000.1,1003.5,1000.1,999.1,3.1,6.9,14,13,4.9,16,28.5,29.0,28.5,95,95,0.9,2,36.88,清河,中国,河北省,邢台市,清河县,54706,37.0833,115.6667,31.5
54707,2022-08-08,1000.8,1004.0,1000.8,1000.0,5.6,10.7,348,31,3.4,357,25.9,29.1,25.9,97,88,18.6,3,28.0,故城,中国,河北省,衡水市,故城县,54707,37.35,115.9833,27.4
54708,2022-08-08,1001.1,1003.9,1001.1,1000.7,2.8,4.6,86,47,2.8,87,27.1,27.4,26.9,100,100,0.3,2,33.24,枣强,中国,河北省,衡水市,枣强县,54708,37.5,115.7333,23.6
54710,2022-08-08,1002.3,1004.2,1002.3,1001.3,3.9,9.0,50,64,3.1,64,28.8,28.9,28.8,100,100,0.0,2,39.41,阜城,中国,河北省,衡水市,阜城县,54710,37.8447,116.1506,15.8
54711,2022-08-08,1002.3,1004.1,1002.3,1001.1,4.8,8.6,69,83,4.7,72,28.7,29.2,28.7,100,100,0.0,3,39.02,景县,中国,河北省,衡水市,景县,54711,37.6686,116.265,15.0
54713,2022-08-08,1002.7,1004.5,1002.7,1001.6,5.3,10.7,79,90,3.6,76,27.2,28.9,27.2,94,90,0.1,3,32.4,东光,中国,河北省,沧州市,东光县,54713,37.8833,116.5333,14.4
54717,2022-08-08,1002.4,1004.5,1002.4,1000.9,5.0,8.4,43,61,3.0,52,27.7,27.8,27.2,91,90,0.1,3,33.31,吴桥,中国,河北省,沧州市,吴桥县,54717,37.6333,116.4,17.1
54719,2022-08-08,1003.5,1004.9,1003.5,1002.4,5.2,9.0,97,86,4.5,89,26.7,27.1,26.7,94,93,0.1,3,30.93,南皮,中国,河北省,沧州市,南皮县,54719,38.0119,116.6822,10.8
54800,2022-08-08,1000.0,1003.9,1000.0,998.4,4.9,8.0,17,352,2.6,12,27.1,29.2,27.1,99,98,0.0,2,33.05,威县,中国,河北省,邢台市,威县,54800,37.0,115.25,33.3
54801,2022-08-08,999.0,1003.1,999.1,998.1,1.3,2.5,360,341,1.6,321,29.3,29.8,29.2,99,99,0.0,1,41.08,临西,中国,河北省,邢台市,临西县,54801,36.85,115.4833,35.3
54804,2022-08-08,997.4,1002.6,997.5,996.9,0.9,1.2,17,73,0.5,24,29.0,29.0,28.8,95,94,0.0,1,38.67,大名,中国,河北省,邯郸市,大名县,54804,36.3042,115.1814,45.3
54809,2022-08-08,997.9,1002.7,997.9,997.2,0.6,1.2,283,999017,0.0,203,29.1,29.5,29.1,93,89,0.0,0,38.44,馆陶,中国,河北省,邯郸市,馆陶县,54809,36.55,115.2833,41.3
54820,2022-08-08,998.8,1003.3,998.8,997.5,2.3,3.5,344,346,2.4,337,28.9,29.3,28.9,98,93,0.0,2,39.19,邱县,中国,河北省,邯郸市,邱县,54820,36.81,115.2078,39.0
53992,2022-08-08,995.3,1002.0,995.3,995.0,1.3,2.0,141,285,0.4,110,30.0,30.3,29.6,88,84,0.0,1,40.11,浚县,中国,河南省,鹤壁市,浚县,53992,35.6589,114.5183,58.2
53993,2022-08-08,996.4,1002.3,996.5,995.9,0.8,1.3,149,999017,0.0,77,30.3,30.4,29.9,85,83,0.0,0,40.18,内黄,中国,河南省,安阳市,内黄县,53993,35.9425,114.91,51.6
53998,2022-08-08,994.6,1001.6,994.9,994.5,1.6,3.6,149,155,1.3,152,32.3,32.3,30.7,81,80,0.0,1,45.92,长垣,中国,河南省,新乡市,长垣县,53998,35.1933,114.6547,61.6
54817,2022-08-08,997.7,1002.7,997.8,997.1,1.5,2.9,156,155,1.4,186,32.3,32.3,30.2,79,79,0.0,1,45.03,台前,中国,河南省,濮阳市,台前县,54817,35.9842,115.8619,42.1
54900,2022-08-08,996.0,1002.2,996.1,995.7,1.1,1.8,175,139,0.9,178,30.6,30.7,29.8,83,82,0.0,1,40.56,濮阳,中国,河南省,濮阳市,濮阳县,54900,35.6967,115.0317,53.7
54901,2022-08-08,996.9,1002.3,996.9,996.1,1.1,1.9,181,999017,0.0,173,29.0,29.1,28.7,93,92,0.0,0,38.09,南乐,中国,河南省,濮阳市,南乐县,54901,36.0581,115.2414,46.6
54902,2022-08-08,996.6,1002.3,996.7,996.0,1.4,2.1,145,999017,0.0,151,29.5,29.6,29.3,93,91,0.0,0,39.91,清丰,中国,河南省,濮阳市,清丰县,54902,35.9419,115.1428,49.3
54903,2022-08-08,997.2,1002.5,997.2,996.5,1.8,2.6,169,143,0.6,158,30.1,30.3,29.3,85,81,0.0,1,39.48,范县,中国,河南省,濮阳市,范县,54903,35.8492,115.4761,46.0
57093,2022-08-08,993.8,1001.8,993.8,993.5,3.4,4.9,203,177,2.7,199,31.5,31.5,30.2,76,76,0.0,2,41.07,兰考,中国,河南省,开封市,兰考县,57093,34.8611,114.7989,70.8
57096,2022-08-08,995.0,1001.8,995.0,994.7,1.8,3.1,217,211,1.7,196,31.0,31.0,29.3,79,79,0.0,2,40.52,杞县,中国,河南省,开封市,杞县,57096,34.5406,114.7819,59.7
57099,2022-08-08,996.2,1002.2,996.2,996.0,2.5,5.0,206,189,1.3,196,31.8,31.8,30.4,70,70,0.0,2,39.83,太康,中国,河南省,周口市,太康县,57099,34.0744,114.8497,52.6
58001,2022-08-08,995.4,1001.8,995.5,995.1,2.3,3.6,191,200,2.7,196,31.3,31.3,29.5,77,76,0.0,2,40.79,睢县,中国,河南省,商丘市,睢县,58001,34.4769,115.0325,56.1
58004,2022-08-08,995.1,1002.1,995.1,994.8,2.3,3.2,158,191,1.6,166,31.2,31.4,29.7,83,82,0.0,2,42.68,民权,中国,河南省,商丘市,民权县,58004,34.6194,115.1944,61.6
58005,2022-08-08,996.5,1002.3,996.5,996.2,2.8,3.9,190,194,3.1,186,30.6,30.6,29.1,81,81,0.0,2,39.89,商丘,中国,河南省,商丘市,梁园区,58005,34.4372,115.5353,50.8
58006,2022-08-08,997.1,1002.5,997.1,996.9,2.7,4.2,183,197,2.0,176,30.0,30.0,29.1,80,80,0.0,2,37.67,虞城,中国,河南省,商丘市,虞城县,58006,34.3903,115.8794,46.3
58007,2022-08-08,996.8,1002.1,997.0,996.6,2.4,3.7,166,195,1.6,186,30.8,30.8,29.4,81,81,0.0,2,40.55,柘城,中国,河南省,商丘市,柘城县,58007,34.0983,115.3592,45.7
58008,2022-08-08,995.7,1002.1,995.7,995.4,2.3,3.9,197,189,1.8,202,31.9,31.9,30.4,75,75,0.0,2,41.98,宁陵,中国,河南省,商丘市,宁陵县,58008,34.4867,115.3156,55.8
58017,2022-08-08,997.6,1002.5,997.8,997.6,3.0,4.6,183,178,2.6,180,31.5,31.5,30.5,69,69,0.0,2,38.64,夏邑,中国,河南省,商丘市,夏邑县,58017,34.2831,116.1508,42.6
