Station_Id_C,dt,PRS,PRS_Sea,PRS_Max,PRS_Min,WIN_S_Max,WIN_S_Inst_Max,WIN_D_INST_Max,WIN_D_Avg_2mi,WIN_S_Avg_2mi,WIN_D_S_Max,TEM,TEM_Max,TEM_Min,RHU,RHU_Min,PRE_1h,windpower,tigan,Station_Name,Country,Province,City,Cnty,Station_Id_d,Lat,Lon,Alti
58015,2022-08-08 18:00:00,998.1,1002.9,998.4,998.1,2.5,4.2,174,170,1.8,156,32.0,32.1,31.5,75,74,0.0,2,42.31,砀山,中国,安徽省,宿州市,砀山县,58015,34.4389,116.3397,42.1
58016,2022-08-08 18:00:00,999.3,1003.3,999.7,999.3,1.2,1.5,110,999017,0.1,122,30.1,31.0,30.1,84,81,0.0,0,39.17,萧县,中国,安徽省,宿州市,萧县,58016,34.1803,116.9628,34.9
58116,2022-08-08 18:00:00,999.4,1003.2,999.9,999.4,0.9,1.2,127,999017,0.0,126,30.1,30.4,30.1,94,93,0.0,0,42.55,淮北,中国,安徽省,淮北市,杜集区,58116,34.0333,116.8689,32.9
58012,2022-08-08 18:00:00,998.6,1003.4,998.9,998.6,0.3,0.6,98,999017,0.1,117,29.2,29.4,29.1,100,100,0.0,0,41.0,丰县,中国,江苏省,徐州市,丰县,58012,34.6719,116.6561,42.0
58013,2022-08-08 18:00:00,999.1,1003.3,999.6,999.1,1.8,3.6,169,203,1.5,170,31.7,32.5,31.7,78,74,0.0,1,42.49,沛县,中国,江苏省,徐州市,沛县,58013,34.7533,116.9058,36.5
58026,2022-08-08 18:00:00,1000.7,1003.7,1001.1,1000.7,0.6,1.1,136,999017,0.0,119,30.3,30.7,30.3,95,95,0.0,0,43.73,邳州,中国,江苏省,徐州市,邳州市,58026,34.3942,118.0189,25.7
58027,2022-08-08 18:00:00,998.8,1003.5,999.1,998.8,1.6,3.1,165,177,1.5,173,32.1,32.7,32.1,73,70,0.0,1,41.85,徐州,中国,江苏省,徐州市,市辖区,58027,34.2872,117.1586,41.2
58035,2022-08-08 18:00:00,1000.5,1003.9,1000.9,1000.5,1.2,2.2,163,162,1.4,186,30.4,30.7,30.4,88,86,0.0,1,41.57,新沂,中国,江苏省,徐州市,新沂市,58035,34.3319,118.3536,29.3
58036,2022-08-08 18:00:00,1000.1,1003.9,1000.5,1000.1,1.7,3.5,144,149,1.0,157,30.8,31.1,30.7,85,83,0.0,1,41.97,东海,中国,江苏省,连云港市,东海县,58036,34.5425,118.7136,32.9
58038,2022-08-08 18:00:00,1002.9,1004.2,1003.3,1002.9,0.9,1.5,135,162,0.7,129,30.9,31.2,30.9,82,79,0.0,1,41.25,沭阳,中国,江苏省,宿迁市,沭阳县,58038,34.0911,118.7836,10.4
58040,2022-08-08 18:00:00,1003.3,1004.0,1003.5,1003.2,1.3,2.7,192,186,1.6,180,32.2,32.4,32.1,78,78,0.0,1,44.23,赣榆,中国,江苏省,连云港市,赣榆区,58040,34.8564,119.1269,5.3
58041,2022-08-08 18:00:00,1000.9,1004.0,1001.3,1000.9,5.0,7.4,175,178,4.1,176,33.1,33.1,32.7,65,65,0.0,3,41.69,西连岛,中国,江苏省,连云港市,连云区,58041,34.7778,119.4425,26.2
58044,2022-08-08 18:00:00,1003.4,1004.1,1003.8,1003.4,1.3,1.8,71,78,1.4,83,30.7,31.2,30.7,87,85,0.0,1,42.33,连云港,中国,江苏省,连云港市,市辖区,58044,34.5489,119.2347,4.7
58045,2022-08-08 18:00:00,1003.9,1004.6,1004.0,1003.9,2.0,3.6,156,154,1.7,153,31.0,31.5,31.0,78,78,0.0,1,40.18,响水,中国,江苏省,盐城市,响水县,58045,34.1142,119.3606,4.4
58047,2022-08-08 18:00:00,1003.6,1004.3,1003.8,1003.6,1.7,2.5,148,133,0.5,146,31.4,31.7,31.4,82,78,0.0,1,43.02,灌云,中国,江苏省,连云港市,灌云县,58047,34.2575,119.2361,4.8
58048,2022-08-08 18:00:00,1003.4,1004.4,1003.5,1003.4,3.3,5.5,171,165,2.9,170,31.1,31.8,31.1,87,85,0.0,2,43.87,灌南,中国,江苏省,连云港市,灌南县,58048,34.0639,119.2928,8.0
58049,2022-08-08 18:00:00,1004.3,1004.9,1004.5,1004.3,2.9,6.4,192,179,1.8,177,31.3,31.7,31.3,73,72,0.0,2,39.4,滨海,中国,江苏省,盐城市,滨海县,58049,34.0164,119.8031,4.1
54709,2022-08-08 18:00:00,1002.8,1005.8,1003.2,1002.8,4.3,6.2,3,5,3.6,1,21.8,22.6,21.8,100,100,0.5,2,22.65,武城,中国,山东省,德州市,武城县,54709,37.2333,116.0667,24.8
54712,2022-08-08 18:00:00,1002.9,1005.2,1003.2,1002.9,4.2,6.4,48,25,3.6,21,22.3,22.6,22.3,100,100,0.3,3,23.2,临邑,中国,山东省,德州市,临邑县,54712,37.2,116.8167,18.5
54714,2022-08-08 18:00:00,1002.7,1005.8,1003.0,1002.7,3.9,6.0,34,16,3.0,40,21.9,22.1,21.9,100,100,2.9,2,22.76,德州,中国,山东省,德州市,德城区,54714,37.35,116.3333,25.4
54715,2022-08-08 18:00:00,1003.6,1005.8,1003.7,1003.4,3.8,6.9,38,27,2.3,38,21.9,22.0,21.9,95,95,0.5,2,22.63,陵城,中国,山东省,临沂市,兰陵县,54715,37.3167,116.5167,17.6
54716,2022-08-08 18:00:00,1003.6,1005.7,1004.3,1003.6,3.5,6.3,8,61,3.3,57,21.1,21.7,21.1,97,97,14.8,2,21.8,宁津,中国,山东省,德州市,宁津县,54716,37.6667,116.8,17.3
54722,2022-08-08 18:00:00,1004.9,1005.8,1005.6,1004.8,5.2,8.8,64,65,2.6,59,21.7,21.7,21.6,100,100,12.5,3,22.54,无棣,中国,山东省,滨州市,无棣县,54722,37.75,117.6333,6.8
54723,2022-08-08 18:00:00,1004.6,1005.9,1005.4,1004.6,3.9,5.9,63,69,2.9,64,21.8,21.9,21.8,95,95,6.0,2,22.52,阳信,中国,山东省,滨州市,阳信县,54723,37.65,117.5667,10.1
54724,2022-08-08 18:00:00,1003.5,1005.3,1004.1,1003.5,3.7,6.7,32,32,3.8,35,22.1,22.4,22.1,97,96,1.8,3,22.9,商河,中国,山东省,济南市,商河县,54724,37.3167,117.1333,14.8
54725,2022-08-08 18:00:00,1004.2,1005.7,1004.9,1004.1,3.1,5.8,54,57,2.1,54,21.9,22.0,21.8,100,100,2.6,2,22.76,惠民,中国,山东省,滨州市,惠民县,54725,37.5,117.5333,11.7
54726,2022-08-08 18:00:00,1004.5,1006.0,1005.2,1004.5,3.1,6.4,59,56,1.8,41,21.6,21.9,21.6,100,100,2.5,2,22.43,乐陵,中国,山东省,德州市,乐陵市,54726,37.7,117.1833,11.5
54727,2022-08-08 18:00:00,974.9,1004.7,975.0,974.7,2.5,2.5,305,8,1.3,132,24.9,24.9,24.7,96,89,0.0,1,25.95,章丘,中国,山东省,济南市,章丘区,54727,36.65,117.5167,263.0
54728,2022-08-08 18:00:00,1004.7,1006.1,1005.3,1004.7,3.5,6.8,84,37,2.6,71,21.5,21.6,21.4,100,99,2.9,2,22.32,庆云,中国,山东省,德州市,庆云县,54728,37.7667,117.35,10.5
54729,2022-08-08 18:00:00,1003.8,1005.3,1004.5,1003.7,3.0,5.0,4,54,1.6,356,23.9,24.1,23.8,96,93,0.5,2,24.85,高青,中国,山东省,淄博市,高青县,54729,37.1667,117.8667,11.5
54734,2022-08-08 18:00:00,1003.4,1005.6,1004.9,1003.4,6.3,10.3,293,62,3.0,331,22.8,24.3,22.8,96,89,16.4,3,23.64,滨州,中国,山东省,滨州市,滨城区,54734,37.35,118.0333,17.8
54736,2022-08-08 18:00:00,1004.2,1005.0,1004.6,1004.2,2.5,5.2,82,62,1.5,73,25.7,25.7,25.6,91,90,0.0,2,27.31,东营,中国,山东省,东营市,东营区,54736,37.4333,118.6667,6.0
54744,2022-08-08 18:00:00,1004.4,1005.5,1004.6,1004.3,2.3,4.4,53,43,1.7,46,24.6,24.6,24.3,91,91,0.0,2,25.49,垦利,中国,山东省,东营市,垦利区,54744,37.5833,118.55,8.5
54749,2022-08-08 18:00:00,999.3,1005.0,999.6,999.3,2.0,3.6,82,93,2.4,100,26.1,27.3,26.1,94,86,15.8,2,28.47,莱州,中国,山东省,烟台市,莱州市,54749,37.1833,119.95,48.4
54751,2022-08-08 18:00:00,1001.4,1006.1,1001.8,1001.1,5.2,8.6,81,72,4.8,79,23.6,24.6,23.4,100,100,7.5,3,24.63,长岛,中国,山东省,烟台市,长岛县,54751,37.9392,120.7256,39.7
54752,2022-08-08 18:00:00,999.0,1006.1,999.4,998.9,3.7,6.8,75,61,2.8,73,24.4,25.5,24.4,96,94,4.0,2,25.4,蓬莱,中国,山东省,烟台市,蓬莱市,54752,37.8,120.7667,60.7
54753,2022-08-08 18:00:00,1005.2,1005.9,1005.4,1005.1,2.7,4.6,69,57,2.7,67,25.4,25.4,25.2,100,100,1.9,2,26.61,龙口,中国,山东省,烟台市,龙口市,54753,37.6333,120.3333,4.8
54755,2022-08-08 18:00:00,992.2,1005.8,992.4,992.0,2.6,3.6,99,123,1.4,119,25.5,25.7,25.5,96,95,0.0,2,26.61,招远,中国,山东省,烟台市,招远市,54755,37.3283,120.3869,117.8
54759,2022-08-08 18:00:00,982.3,1005.8,982.5,982.2,4.6,7.1,55,53,4.4,47,24.1,24.6,24.1,100,100,0.1,3,25.18,栖霞,中国,山东省,烟台市,栖霞市,54759,37.3247,120.8519,205.5
54764,2022-08-08 18:00:00,999.4,1005.7,999.8,999.4,1.1,2.3,360,357,1.3,106,25.3,25.3,25.3,94,94,0.0,1,26.34,福山,中国,山东省,烟台市,福山区,54764,37.4833,121.2333,53.9
54765,2022-08-08 18:00:00,996.4,1005.9,996.9,996.4,2.0,2.8,22,34,1.6,27,25.1,25.1,24.9,98,97,0.0,2,26.22,烟台,中国,山东省,烟台市,莱山区,54765,37.4833,121.4333,82.0
54776,2022-08-08 18:00:00,1000.3,1005.9,1001.1,1000.3,2.7,3.5,257,999017,0.0,261,25.0,25.1,24.9,98,97,1.2,0,26.11,成山头,中国,山东省,威海市,荣成市,54776,37.4,122.7,47.7
54777,2022-08-08 18:00:00,992.3,1005.9,992.7,992.3,2.8,3.8,85,106,1.7,89,25.2,25.4,25.2,94,94,1.7,2,26.23,文登,中国,山东省,威海市,文登区,54777,37.2,122.0667,118.0
54802,2022-08-08 18:00:00,1001.4,1005.5,1001.7,1001.4,4.3,8.0,68,43,3.6,40,21.5,22.7,21.5,97,97,0.0,3,22.24,临清,中国,山东省,聊城市,临清市,54802,36.8167,115.7333,34.0
54806,2022-08-08 18:00:00,1000.6,1004.9,1000.9,1000.5,4.1,6.6,302,313,2.9,303,24.4,25.2,24.4,97,97,0.1,3,25.43,聊城,中国,山东省,聊城市,东昌府区,54806,36.3494,115.9761,36.1
54807,2022-08-08 18:00:00,1000.1,1004.9,1000.4,1000.0,4.8,6.7,351,348,4.1,342,23.4,24.1,23.4,100,100,0.0,3,24.41,阳谷,中国,山东省,聊城市,阳谷县,54807,36.15,115.7667,41.2
54808,2022-08-08 18:00:00,1000.9,1005.5,1001.1,1000.9,5.0,8.2,335,322,5.3,328,22.4,23.2,22.4,98,98,1.1,3,23.25,莘县,中国,山东省,聊城市,莘县,54808,36.2156,115.6267,38.7
54812,2022-08-08 18:00:00,1001.5,1004.5,1001.7,1001.4,1.8,2.8,31,16,1.9,8,24.7,24.8,24.6,100,100,0.0,2,25.84,齐河,中国,山东省,德州市,齐河县,54812,36.7333,116.7167,24.7
54814,2022-08-08 18:00:00,1000.9,1004.4,1001.4,1000.9,2.3,3.5,37,27,2.2,28,24.7,25.2,24.7,99,99,0.7,2,25.81,茌平,中国,山东省,聊城市,茌平县,54814,36.5333,116.25,29.7
54815,2022-08-08 18:00:00,1000.7,1004.4,1001.1,1000.5,1.7,2.5,304,290,1.1,320,25.2,25.2,25.1,99,99,1.2,1,26.36,东阿,中国,山东省,聊城市,东阿县,54815,36.3833,116.2667,31.4
54816,2022-08-08 18:00:00,992.9,1004.2,993.3,992.7,2.4,3.9,151,333,1.4,148,25.3,25.3,25.2,95,95,0.5,1,26.37,长清,中国,山东省,济南市,长清区,54816,36.5167,116.8,98.9
54818,2022-08-08 18:00:00,995.4,1004.6,995.5,994.9,3.1,4.4,328,337,1.9,325,25.6,25.9,25.6,97,97,0.5,2,27.12,平阴,中国,山东省,济南市,平阴县,54818,36.25,116.4167,79.9
54819,2022-08-08 18:00:00,991.0,1004.0,991.5,990.8,0.8,1.4,12,999017,0.1,15,24.9,24.9,24.9,97,97,0.1,1,25.98,肥城,中国,山东省,泰安市,肥城市,54819,36.1833,116.8,113.6
54821,2022-08-08 18:00:00,1002.6,1005.1,1002.9,1002.4,2.8,4.8,10,24,1.5,28,24.0,24.2,23.9,94,93,0.0,2,24.91,济阳,中国,山东省,济南市,济阳县,54821,37.0,117.2,20.4
54822,2022-08-08 18:00:00,999.3,1004.8,999.4,999.2,1.2,2.5,98,23,0.7,52,25.8,25.9,25.7,100,100,0.0,1,27.77,邹平,中国,山东省,滨州市,邹平县,54822,36.8667,117.7333,47.4
54823,2022-08-08 18:00:00,985.0,1004.4,985.5,985.0,2.4,4.0,147,117,1.2,149,25.2,25.4,25.1,95,94,0.7,1,26.26,济南,中国,山东省,济南市,市中区,54823,36.6019,117.0081,170.3
54824,2022-08-08 18:00:00,993.8,1004.7,993.9,993.8,0.9,1.7,254,999017,0.1,244,26.0,26.2,26.0,95,94,0.0,0,28.23,淄川,中国,山东省,淄博市,淄川区,54824,36.6333,117.95,95.0
54825,2022-08-08 18:00:00,981.9,1003.4,982.0,981.8,0.7,1.2,321,35,0.5,59,25.4,25.5,25.4,81,81,0.0,1,26.11,博山,中国,山东省,淄博市,博山区,54825,36.5167,117.85,189.7
54826,2022-08-08 18:00:00,844.3,1006.7,844.3,843.8,8.1,15.5,226,159,2.8,217,21.6,21.9,21.5,100,100,0.1,2,22.43,泰山,中国,山东省,泰安市,泰山区,54826,36.25,117.1,1533.7
54827,2022-08-08 18:00:00,989.9,1004.6,990.2,989.7,1.6,2.4,87,31,0.3,83,25.3,25.3,25.2,96,96,0.0,1,26.39,泰安,中国,山东省,泰安市,泰山区,54827,36.1667,117.15,128.6
54828,2022-08-08 18:00:00,978.3,1004.1,978.6,978.3,1.6,2.8,7,15,0.9,9,25.3,25.3,25.1,89,89,0.0,1,26.21,莱芜,中国,山东省,莱芜市, ,54828,36.2333,117.6833,229.3
54829,2022-08-08 18:00:00,995.1,1005.0,995.2,995.0,1.9,2.7,21,7,0.8,16,25.2,25.8,25.2,94,93,0.0,1,26.23,周村,中国,山东省,淄博市,周村区,54829,36.7667,117.8667,85.7
54830,2022-08-08 18:00:00,1000.8,1004.9,1001.0,1000.7,2.2,3.6,348,5,1.4,355,25.2,25.7,25.2,94,92,0.0,2,26.23,淄博,中国,山东省,淄博市,张店区,54830,36.8167,117.9333,34.4
54831,2022-08-08 18:00:00,992.5,1004.3,993.0,992.4,1.2,1.8,160,352,0.3,183,26.4,26.5,26.3,92,90,0.0,1,29.21,青州,中国,山东省,潍坊市,青州市,54831,36.65,118.5,102.5
54832,2022-08-08 18:00:00,1001.8,1004.6,1001.9,1001.6,1.2,2.7,53,999017,0.2,85,26.8,26.8,26.8,95,94,0.0,1,31.39,寿光,中国,山东省,潍坊市,寿光市,54832,36.8631,118.7953,23.4
54833,2022-08-08 18:00:00,1003.2,1005.1,1003.4,1003.0,0.7,2.9,11,9,1.0,356,25.3,25.7,25.3,99,98,0.0,1,26.47,桓台,中国,山东省,淄博市,桓台县,54833,36.9667,118.0833,15.1
54834,2022-08-08 18:00:00,999.2,1004.6,999.5,999.1,1.6,2.6,63,66,1.2,61,26.0,26.0,25.8,93,92,0.0,1,28.15,临淄,中国,山东省,淄博市,临淄区,54834,36.8667,118.2833,46.3
54835,2022-08-08 18:00:00,987.6,1004.7,988.2,987.5,2.3,3.5,309,999017,0.1,287,26.3,26.4,26.2,90,90,0.0,1,28.81,临朐,中国,山东省,潍坊市,临朐县,54835,36.4733,118.5606,149.5
54836,2022-08-08 18:00:00,970.5,1004.7,970.8,970.5,1.3,1.7,140,999017,0.2,135,25.9,26.1,25.8,96,94,0.0,1,27.97,沂源,中国,山东省,淄博市,沂源县,54836,36.1833,118.1667,305.1
54837,2022-08-08 18:00:00,995.5,1004.6,995.7,995.4,1.2,2.0,281,999017,0.0,351,26.7,26.7,26.7,98,97,0.0,1,31.6,昌乐,中国,山东省,潍坊市,昌乐县,54837,36.6797,118.8361,78.8
54841,2022-08-08 18:00:00,1001.5,1004.3,1002.4,1001.4,1.8,3.1,77,98,1.9,73,26.9,27.1,26.9,99,98,0.0,2,32.4,昌邑,中国,山东省,潍坊市,昌邑市,54841,36.8617,119.4181,23.5
54842,2022-08-08 18:00:00,997.3,1004.5,997.9,997.3,2.9,4.6,77,63,2.0,80,26.7,27.1,26.7,97,93,0.0,2,31.43,平度,中国,山东省,青岛市,平度市,54842,36.7833,120.0,62.2
54843,2022-08-08 18:00:00,1001.9,1004.6,1002.2,1001.6,1.1,2.1,95,171,1.0,91,27.0,27.1,27.0,96,95,0.0,1,32.17,潍坊,中国,山东省,潍坊市,寒亭区,54843,36.75,119.2,22.2
54844,2022-08-08 18:00:00,997.1,1004.4,997.7,997.0,1.2,2.3,135,999017,0.0,155,26.7,26.7,26.7,99,99,0.2,1,31.76,安丘,中国,山东省,潍坊市,安丘市,54844,36.4167,119.1833,62.7
54846,2022-08-08 18:00:00,999.4,1005.4,999.4,998.1,4.9,11.2,237,261,4.5,242,26.3,27.3,26.3,93,92,9.1,3,28.99,高密,中国,山东省,潍坊市,高密市,54846,36.3853,119.7361,51.5
54848,2022-08-08 18:00:00,991.7,1004.1,993.2,991.7,3.7,8.5,306,999017,0.0,294,25.3,27.1,25.3,95,92,1.3,0,26.37,诸城,中国,山东省,潍坊市,诸城市,54848,35.9633,119.4847,109.0
54849,2022-08-08 18:00:00,994.3,1004.0,995.4,994.2,7.4,10.2,115,118,4.4,116,26.6,27.1,26.5,98,97,12.4,3,30.26,胶州,中国,山东省,青岛市,胶州市,54849,36.2167,120.0333,84.4
54851,2022-08-08 18:00:00,996.2,1005.0,996.6,996.2,2.0,3.6,93,96,1.6,100,26.0,26.1,26.0,98,97,0.0,2,28.34,莱西,中国,山东省,青岛市,莱西市,54851,36.9,120.5667,76.9
54852,2022-08-08 18:00:00,1000.1,1005.0,1000.5,1000.1,1.5,3.0,73,122,1.4,92,26.4,26.5,26.4,98,98,0.0,1,29.61,莱阳,中国,山东省,烟台市,莱阳市,54852,36.9667,120.7167,41.6
54853,2022-08-08 18:00:00,998.4,1004.7,999.6,998.4,3.9,6.6,251,282,2.4,277,25.8,26.0,25.7,97,94,0.2,2,27.7,崂山,中国,山东省,青岛市,李沧区,54853,36.1333,120.5167,54.0
54855,2022-08-08 18:00:00,999.3,1004.9,1000.2,999.3,2.4,3.6,263,63,1.6,73,27.2,27.5,27.2,99,99,0.8,1,33.38,即墨,中国,山东省,青岛市,即墨区,54855,36.4,120.3833,47.8
54857,2022-08-08 18:00:00,995.5,1004.2,997.4,995.5,3.9,6.9,216,141,1.2,204,26.1,26.1,25.8,95,94,6.5,2,28.52,青岛,中国,山东省,青岛市,市南区,54857,36.0667,120.3333,76.0
54861,2022-08-08 18:00:00,1000.1,1005.4,1000.7,1000.1,1.0,2.3,147,75,1.2,163,26.4,26.5,26.3,91,91,0.0,1,29.14,乳山,中国,山东省,威海市,乳山市,54861,36.9333,121.5333,45.4
54863,2022-08-08 18:00:00,1000.6,1005.4,1001.0,1000.5,2.9,4.1,74,114,1.3,58,26.4,26.4,26.3,97,96,1.1,2,29.54,海阳,中国,山东省,烟台市,海阳市,54863,36.775,121.1783,40.9
54871,2022-08-08 18:00:00,1004.5,1005.8,1005.0,1004.5,2.1,2.8,4,33,0.8,8,25.5,25.5,25.4,100,100,0.0,1,26.83,石岛,中国,山东省,威海市,荣成市,54871,36.9333,122.4833,9.8
54904,2022-08-08 18:00:00,999.5,1005.3,999.9,999.5,4.4,6.6,360,338,4.5,335,24.1,24.8,24.1,93,91,0.0,2,24.99,鄄城,中国,山东省,菏泽市,鄄城县,54904,35.5833,115.5167,50.1
54905,2022-08-08 18:00:00,999.4,1004.8,999.7,999.2,2.9,5.8,317,342,2.8,316,26.1,27.4,26.1,92,90,0.0,2,28.38,郓城,中国,山东省,菏泽市,郓城县,54905,35.5833,115.9333,46.2
54906,2022-08-08 18:00:00,999.0,1004.9,999.3,999.0,4.6,7.6,323,324,4.2,330,24.8,25.4,24.8,93,93,0.0,2,25.76,菏泽,中国,山东省,菏泽市,牡丹区,54906,35.3167,115.5333,50.7
54907,2022-08-08 18:00:00,999.0,1003.0,999.4,999.0,1.1,1.7,172,178,1.2,173,30.5,30.6,30.5,88,87,0.0,1,41.94,鱼台,中国,山东省,济宁市,鱼台县,54907,34.9833,116.65,34.3
54908,2022-08-08 18:00:00,998.4,1005.0,998.6,998.3,4.0,7.0,338,345,3.4,343,23.9,24.4,23.9,91,91,0.0,2,24.72,东明,中国,山东省,菏泽市,东明县,54908,35.2667,115.1,57.3
54909,2022-08-08 18:00:00,998.7,1004.7,999.0,998.6,3.3,5.3,340,328,2.4,331,26.1,27.2,26.1,91,90,0.0,2,28.34,定陶,中国,山东省,菏泽市,定陶区,54909,35.0833,115.5167,51.5
54910,2022-08-08 18:00:00,999.6,1004.4,1000.2,999.6,3.7,5.2,298,328,1.8,313,26.5,26.9,26.5,100,100,0.0,2,30.08,梁山,中国,山东省,济宁市,梁山县,54910,35.8125,116.0533,40.9
54911,2022-08-08 18:00:00,999.1,1004.2,999.7,999.1,2.7,4.3,274,999017,0.0,267,25.8,25.8,25.7,97,95,5.1,0,27.7,东平,中国,山东省,泰安市,东平县,54911,35.9333,116.4,44.0
54912,2022-08-08 18:00:00,999.3,1004.2,999.5,999.3,2.5,3.6,315,302,1.5,298,25.8,25.8,25.5,96,95,0.0,2,27.68,汶上,中国,山东省,济宁市,汶上县,54912,35.7667,116.5,41.8
54913,2022-08-08 18:00:00,995.8,1003.6,996.3,995.8,2.4,3.5,350,352,1.4,359,25.9,25.9,25.9,90,88,0.0,1,27.79,宁阳,中国,山东省,泰安市,宁阳县,54913,35.7953,116.8067,67.6
54914,2022-08-08 18:00:00,999.5,1004.2,999.9,999.5,3.2,4.7,8,354,2.3,360,27.1,27.7,27.1,99,97,0.0,2,33.05,巨野,中国,山东省,菏泽市,巨野县,54914,35.4167,116.0833,40.6
54915,2022-08-08 18:00:00,999.1,1003.0,999.4,999.0,2.6,4.0,321,317,2.8,313,27.7,28.6,27.7,92,90,0.0,2,33.52,济宁,中国,山东省,济宁市,任城区,54915,35.4411,116.6014,33.3
54916,2022-08-08 18:00:00,997.6,1002.6,998.1,997.6,1.9,2.5,8,331,0.6,4,28.5,28.7,28.5,88,88,0.0,1,35.08,兖州,中国,山东省,济宁市,兖州区,54916,35.5333,116.8333,43.3
54917,2022-08-08 18:00:00,999.4,1003.6,999.6,999.4,3.1,4.8,318,322,2.8,313,27.6,28.8,27.6,91,90,0.0,2,33.01,金乡,中国,山东省,济宁市,金乡县,54917,35.1333,116.3333,35.8
54918,2022-08-08 18:00:00,996.1,1003.2,996.7,996.0,1.1,1.8,351,82,0.7,32,28.9,28.9,28.8,87,84,0.0,1,36.08,曲阜,中国,山东省,济宁市,曲阜市,54918,35.6,116.9733,62.3
54919,2022-08-08 18:00:00,993.0,1003.2,993.5,993.0,1.4,2.8,214,262,1.2,248,31.1,31.7,31.1,76,72,0.0,1,39.81,邹城,中国,山东省,济宁市,邹城市,54919,35.3667,116.9833,89.8
54920,2022-08-08 18:00:00,990.9,1003.4,991.4,990.9,1.5,2.1,343,3,1.1,97,27.9,28.5,27.9,87,81,0.0,1,33.04,泗水,中国,山东省,济宁市,泗水县,54920,35.65,117.2833,110.4
54921,2022-08-08 18:00:00,999.6,1003.9,1000.0,999.6,2.9,4.1,332,326,1.8,327,27.2,27.2,27.1,91,91,0.0,2,31.83,嘉祥,中国,山东省,济宁市,嘉祥县,54921,35.4333,116.2833,37.1
54922,2022-08-08 18:00:00,980.5,1003.6,981.0,980.4,1.5,2.9,132,135,2.0,126,27.6,28.1,27.6,98,93,0.0,1,34.51,新泰,中国,山东省,泰安市,新泰市,54922,35.8667,117.75,206.0
54923,2022-08-08 18:00:00,971.7,1003.7,972.3,971.7,2.1,3.0,98,96,2.3,102,27.1,27.5,27.1,97,94,0.0,2,32.66,蒙阴,中国,山东省,临沂市,蒙阴县,54923,35.7333,117.95,286.5
54925,2022-08-08 18:00:00,985.3,1003.4,985.9,985.3,2.9,4.0,131,132,2.6,133,28.7,28.9,28.7,100,100,0.0,2,39.02,平邑,中国,山东省,临沂市,平邑县,54925,35.5,117.6833,161.2
54927,2022-08-08 18:00:00,994.6,1003.1,995.0,994.6,1.8,3.7,200,180,1.3,188,30.8,30.8,29.9,80,80,0.0,1,40.21,滕州,中国,山东省,枣庄市,滕州市,54927,35.1,117.2,74.9
54929,2022-08-08 18:00:00,985.6,1003.9,985.8,985.6,1.5,2.1,104,105,1.2,152,29.7,29.8,29.4,84,83,0.0,1,37.85,费县,中国,山东省,临沂市,费县,54929,35.2667,117.9667,121.2
54932,2022-08-08 18:00:00,983.1,1004.4,983.3,983.1,1.8,2.9,85,61,0.4,49,26.1,26.1,25.4,91,90,0.0,1,28.34,沂水,中国,山东省,临沂市,沂水县,54932,35.7667,118.65,186.7
54935,2022-08-08 18:00:00,990.8,1004.3,991.0,990.7,1.7,3.0,82,64,1.4,78,28.0,28.6,28.0,76,74,0.0,1,31.5,沂南,中国,山东省,临沂市,沂南县,54935,35.5333,118.4333,119.4
54936,2022-08-08 18:00:00,992.1,1004.1,992.4,992.1,2.4,4.1,50,999017,0.2,57,27.5,27.5,27.3,100,100,0.0,1,34.6,莒县,中国,山东省,日照市,莒县,54936,35.5667,118.8333,107.4
54938,2022-08-08 18:00:00,990.0,1004.0,990.3,990.0,3.7,4.4,26,28,3.7,27,28.4,28.9,28.4,93,87,0.0,3,36.01,临沂,中国,山东省,临沂市,兰山区,54938,35.25,118.4167,124.0
54939,2022-08-08 18:00:00,991.4,1004.2,991.5,991.4,1.4,2.6,177,181,1.3,185,30.4,30.6,30.4,85,83,0.0,1,40.53,莒南,中国,山东省,临沂市,莒南县,54939,35.1667,118.8167,113.8
54940,2022-08-08 18:00:00,987.6,1004.3,988.2,987.6,1.3,3.2,140,999017,0.0,176,26.9,27.0,26.9,98,98,0.0,1,32.22,五莲,中国,山东省,日照市,五莲县,54940,35.75,119.2,148.2
54943,2022-08-08 18:00:00,1003.5,1004.3,1004.1,1003.5,2.7,4.0,41,999017,0.1,50,27.0,27.0,26.7,100,100,0.0,0,32.91,黄岛,中国,山东省,青岛市,黄岛区,54943,35.8333,120.0333,5.7
54945,2022-08-08 18:00:00,996.9,1004.3,997.4,996.9,0.8,1.1,240,999017,0.0,238,28.6,28.8,28.6,98,97,0.0,1,38.06,日照,中国,山东省,日照市,东港区,54945,35.4667,119.55,64.4
58002,2022-08-08 18:00:00,998.7,1004.4,998.9,998.7,2.7,4.9,324,335,1.7,322,27.3,28.8,27.3,96,95,0.0,2,33.1,曹县,中国,山东省,菏泽市,曹县,58002,34.85,115.5833,49.0
58003,2022-08-08 18:00:00,998.8,1004.0,999.0,998.8,4.3,7.4,3,332,3.2,354,28.4,29.1,28.4,87,86,0.0,2,34.52,成武,中国,山东省,菏泽市,成武县,58003,34.95,115.8833,45.4
58011,2022-08-08 18:00:00,998.4,1003.7,998.6,998.4,2.6,5.0,329,331,2.0,341,29.3,30.2,29.3,91,90,0.0,2,38.56,单县,中国,山东省,菏泽市,单县,58011,34.8,116.0667,46.2
58020,2022-08-08 18:00:00,999.3,1003.4,999.7,999.3,1.3,2.2,110,118,0.8,115,29.7,30.0,29.7,89,87,0.0,1,39.36,微山,中国,山东省,济宁市,微山县,58020,34.7681,117.1403,35.5
58021,2022-08-08 18:00:00,994.3,1003.4,994.6,994.3,2.4,4.1,169,144,1.9,159,31.3,31.7,31.3,73,71,0.0,2,39.4,薛城,中国,山东省,枣庄市,薛城区,58021,34.7833,117.2833,80.5
58022,2022-08-08 18:00:00,994.4,1003.9,994.7,994.4,1.2,1.5,82,58,0.6,74,28.7,28.9,28.7,90,89,0.0,1,36.23,峄城,中国,山东省,枣庄市,峄城区,58022,34.7667,117.4833,83.4
58024,2022-08-08 18:00:00,995.1,1003.9,995.4,995.1,1.5,2.4,60,52,1.1,60,29.8,30.1,29.8,82,80,0.0,1,37.61,枣庄,中国,山东省,枣庄市,市中区,58024,34.8667,117.5833,77.7
58025,2022-08-08 18:00:00,1000.4,1003.8,1000.7,1000.4,0.8,0.9,37,999017,0.0,39,28.3,28.9,28.3,96,94,0.0,0,36.44,台儿庄,中国,山东省,枣庄市,台儿庄区,58025,34.6,117.7167,29.3
58030,2022-08-08 18:00:00,998.6,1003.7,999.1,998.6,0.3,1.0,173,322,0.7,16,29.8,29.9,29.8,93,92,0.0,1,41.04,兰陵,中国,山东省,临沂市,兰陵县,58030,34.8833,118.0167,44.5
58032,2022-08-08 18:00:00,993.9,1004.1,994.0,993.9,2.3,3.6,178,147,1.8,169,29.9,31.3,29.9,87,78,0.0,2,39.43,临沭,中国,山东省,临沂市,临沭县,58032,34.95,118.65,90.1
53688,2022-08-08 18:00:00,996.8,1008.5,997.2,996.7,2.6,4.8,350,344,2.0,354,23.0,23.1,22.9,76,76,0.0,2,23.34,行唐,中国,河北省,石家庄市,行唐县,53688,38.4186,114.5464,100.3
53689,2022-08-08 18:00:00,1002.8,1007.8,1003.7,1002.8,1.8,3.6,29,85,1.5,52,22.7,22.9,22.7,79,76,0.0,2,23.09,晋州,中国,河北省,石家庄市,晋州市,53689,38.0167,115.0667,42.4
53691,2022-08-08 18:00:00,999.8,1008.1,1000.5,999.8,2.3,5.2,295,294,1.1,307,23.0,23.0,22.8,82,81,0.0,1,23.5,正定,中国,河北省,石家庄市,正定县,53691,38.15,114.5667,71.0
53695,2022-08-08 18:00:00,1000.7,1008.3,1001.3,1000.7,1.8,3.2,17,25,1.3,336,23.6,23.7,23.5,74,73,0.0,2,23.95,新乐,中国,河北省,石家庄市,新乐市,53695,38.35,114.6833,70.8
53697,2022-08-08 18:00:00,1001.6,1007.9,1002.3,1001.6,0.8,1.9,28,16,0.9,8,23.0,23.0,22.9,90,89,0.0,1,23.71,藁城,中国,河北省,石家庄市,藁城区,53697,38.0333,114.8333,53.5
53699,2022-08-08 18:00:00,1002.4,1008.1,1003.0,1002.4,1.7,2.3,107,268,0.9,109,22.8,23.3,22.8,89,81,0.0,1,23.46,无极,中国,河北省,石家庄市,无极县,53699,38.1833,114.95,45.4
53773,2022-08-08 18:00:00,999.4,1007.0,999.4,999.1,8.0,12.3,11,7,4.9,10,23.0,23.7,23.0,79,77,0.0,4,23.42,临漳,中国,河北省,邯郸市,临漳县,53773,36.2986,114.595,65.5
53784,2022-08-08 18:00:00,1003.3,1007.9,1003.8,1003.2,4.5,8.3,40,34,1.1,37,22.2,22.9,22.2,76,71,0.0,1,22.46,赵县,中国,河北省,石家庄市,赵县,53784,37.75,114.7833,38.5
53785,2022-08-08 18:00:00,1003.6,1007.8,1004.0,1003.6,4.4,7.5,14,15,3.3,23,21.9,22.6,21.9,80,79,0.0,2,22.23,柏乡,中国,河北省,邢台市,柏乡县,53785,37.5167,114.6667,35.0
53789,2022-08-08 18:00:00,1001.6,1007.8,1002.2,1001.6,1.4,4.8,20,350,0.8,21,23.5,23.6,23.5,82,80,0.0,1,24.05,栾城,中国,河北省,石家庄市,栾城区,53789,37.8833,114.6333,52.9
53790,2022-08-08 18:00:00,1002.3,1007.6,1002.7,1002.3,4.3,7.5,343,59,2.7,342,22.4,22.6,22.4,79,79,0.0,2,22.76,高邑,中国,河北省,石家庄市,高邑县,53790,37.6347,114.6078,44.5
53794,2022-08-08 18:00:00,1004.1,1007.8,1004.7,1004.1,3.3,7.1,6,9,4.4,41,21.5,21.5,21.1,85,85,0.0,2,21.93,隆尧,中国,河北省,邢台市,隆尧县,53794,37.3903,114.7842,31.0
53796,2022-08-08 18:00:00,1004.1,1007.8,1004.6,1004.1,3.9,9.0,20,55,2.3,35,22.4,22.8,22.4,77,77,0.0,2,22.71,宁晋,中国,河北省,邢台市,宁晋县,53796,37.6178,114.8914,30.6
53799,2022-08-08 18:00:00,1004.7,1007.8,1005.1,1004.7,5.6,10.0,17,20,5.0,19,20.8,20.8,20.5,89,87,0.0,3,21.26,巨鹿,中国,河北省,邢台市,巨鹿县,53799,37.2378,114.9989,25.9
53883,2022-08-08 18:00:00,1003.1,1007.5,1003.2,1003.0,4.2,7.1,34,43,2.0,35,21.3,21.8,21.3,93,93,0.0,2,21.91,任县,中国,河北省,邢台市,任县,53883,37.1333,114.7,36.5
53891,2022-08-08 18:00:00,1002.1,1007.6,1002.3,1002.0,4.2,7.2,40,38,3.4,42,21.5,22.1,21.5,83,80,0.0,2,21.87,南和,中国,河北省,邢台市,南和县,53891,37.0167,114.6833,43.0
53893,2022-08-08 18:00:00,1002.8,1007.3,1003.1,1002.7,7.7,11.2,352,349,6.2,352,20.5,21.4,20.5,100,98,0.0,4,21.22,曲周,中国,河北省,邯郸市,曲周县,53893,36.7889,115.005,37.9
53896,2022-08-08 18:00:00,1000.8,1006.9,1001.0,1000.7,3.7,7.9,18,8,2.4,9,22.7,23.0,22.7,89,88,0.0,2,23.35,魏县,中国,河北省,邯郸市,魏县,53896,36.3278,114.9494,51.6
53899,2022-08-08 18:00:00,1001.6,1007.3,1001.6,1001.3,4.6,7.3,10,355,4.1,9,21.7,22.5,21.7,88,87,0.0,2,22.22,广平,中国,河北省,邯郸市,广平县,53899,36.4833,114.9667,48.5
53980,2022-08-08 18:00:00,1001.3,1007.2,1001.3,1001.1,5.5,8.7,15,12,5.0,8,22.1,23.3,22.1,82,82,0.0,3,22.51,肥乡,中国,河北省,邯郸市,肥乡区,53980,36.55,114.8,50.2
53996,2022-08-08 18:00:00,1000.5,1007.3,1000.5,1000.3,7.1,12.8,12,21,3.3,10,22.4,23.4,22.4,80,77,0.0,3,22.78,成安,中国,河北省,邯郸市,成安县,53996,36.45,114.65,57.9
54604,2022-08-08 18:00:00,1004.6,1008.3,1005.3,1004.5,3.9,7.8,101,68,1.9,95,22.3,23.4,22.3,69,65,0.0,2,22.39,安国,中国,河北省,保定市,安国市,54604,38.4047,115.2919,31.0
54606,2022-08-08 18:00:00,1006.0,1008.2,1006.8,1006.0,6.7,9.8,22,30,4.1,18,18.7,20.9,18.5,100,88,12.9,3,19.24,饶阳,中国,河北省,衡水市,饶阳县,54606,38.2231,115.7431,17.9
54608,2022-08-08 18:00:00,1005.1,1008.2,1005.5,1005.1,4.2,8.5,25,7,3.7,21,19.5,20.1,19.5,96,92,0.1,2,20.01,深州,中国,河北省,衡水市,深州市,54608,37.9903,115.5442,25.5
54609,2022-08-08 18:00:00,1005.9,1008.6,1006.4,1005.9,4.8,6.8,65,72,2.8,60,19.5,20.3,19.5,91,85,0.1,2,19.88,安平,中国,河北省,衡水市,安平县,54609,38.2306,115.5869,22.4
54614,2022-08-08 18:00:00,1007.3,1008.7,1007.8,1007.3,4.2,8.6,8,37,1.7,1,18.4,20.5,18.4,95,80,17.6,2,18.78,河间,中国,河北省,沧州市,河间市,54614,38.4197,116.0561,10.9
54616,2022-08-08 18:00:00,1006.5,1007.6,1006.7,1006.4,2.6,4.5,34,14,1.4,54,22.7,23.2,22.7,76,67,0.1,2,23.01,沧州,中国,河北省,沧州市,运河区,54616,38.35,116.85,8.0
54617,2022-08-08 18:00:00,1006.2,1007.9,1007.1,1006.2,3.7,7.3,22,20,4.6,2,20.1,22.4,20.1,85,72,0.9,3,20.39,献县,中国,河北省,沧州市,献县,54617,38.205,116.1706,13.3
54618,2022-08-08 18:00:00,1005.6,1007.3,1006.3,1005.6,2.3,4.3,1,348,2.8,355,21.4,22.4,21.3,87,83,3.6,2,21.87,泊头,中国,河北省,沧州市,泊头市,54618,38.0833,116.55,13.2
54620,2022-08-08 18:00:00,1005.8,1008.3,1006.7,1005.8,2.9,4.5,98,87,2.1,102,20.6,21.6,20.6,80,75,0.0,2,20.8,蠡县,中国,河北省,保定市,蠡县,54620,38.4833,115.5667,18.5
54621,2022-08-08 18:00:00,1003.6,1008.1,1004.3,1003.6,3.3,6.3,79,91,3.0,81,22.7,23.3,22.7,70,66,0.0,2,22.85,深泽,中国,河北省,石家庄市,深泽县,54621,38.1833,115.1833,38.1
54624,2022-08-08 18:00:00,1006.4,1007.1,1007.1,1006.4,2.2,3.6,81,63,1.7,87,22.8,23.8,22.8,88,79,0.5,2,23.43,黄骅,中国,河北省,沧州市,黄骅市,54624,38.4081,117.3214,4.5
54626,2022-08-08 18:00:00,1007.2,1009.0,1008.0,1007.2,3.3,7.0,69,57,2.4,41,18.9,19.8,18.9,91,87,1.2,2,19.22,肃宁,中国,河北省,沧州市,肃宁县,54626,38.4167,115.8167,13.9
54627,2022-08-08 18:00:00,1005.4,1006.5,1006.1,1005.4,4.9,6.9,54,49,2.4,55,22.0,22.0,21.7,94,90,3.5,2,22.71,盐山,中国,河北省,沧州市,盐山县,54627,38.0333,117.2333,8.2
54628,2022-08-08 18:00:00,1005.8,1006.5,1006.9,1005.5,4.3,7.2,50,21,2.1,44,22.4,22.9,22.4,93,90,6.0,2,23.12,海兴,中国,河北省,沧州市,海兴县,54628,38.0839,117.4136,5.0
54631,2022-08-08 18:00:00,1003.5,1007.3,1003.9,1003.5,4.0,7.7,349,353,5.0,356,20.0,20.1,20.0,92,92,0.0,3,20.46,广宗,中国,河北省,邢台市,广宗县,54631,37.0939,115.1314,31.4
54632,2022-08-08 18:00:00,1003.5,1007.6,1003.7,1003.4,3.6,8.6,351,351,3.1,349,20.1,20.5,20.1,98,95,0.0,2,20.72,平乡,中国,河北省,邢台市,平乡县,54632,37.0667,115.0333,34.0
54633,2022-08-08 18:00:00,1004.4,1007.6,1004.9,1004.3,5.0,7.6,9,359,3.8,353,19.5,19.6,19.4,100,100,0.0,3,20.12,新河,中国,河北省,邢台市,新河县,54633,37.5081,115.2706,26.1
54640,2022-08-08 18:00:00,1003.0,1007.4,1003.5,1003.0,5.2,9.2,10,360,4.4,7,20.9,21.6,20.9,84,82,0.0,3,21.24,鸡泽,中国,河北省,邯郸市,鸡泽县,54640,36.8903,114.8728,36.6
54644,2022-08-08 18:00:00,1005.3,1006.7,1006.2,1005.2,3.7,6.4,91,71,1.8,88,21.4,22.3,21.3,96,90,2.2,2,22.1,孟村,中国,河北省,沧州市,孟村回族自治县,54644,38.0555,117.1239,10.5
54700,2022-08-08 18:00:00,1005.6,1007.6,1006.4,1005.5,4.5,8.1,12,1,4.1,12,20.5,23.0,20.5,84,73,0.8,3,20.8,武强,中国,河北省,衡水市,武强县,54700,38.0333,115.9333,16.2
54701,2022-08-08 18:00:00,1003.6,1007.9,1004.6,1003.4,3.1,6.6,63,53,2.5,63,21.8,22.1,21.7,77,77,0.0,2,22.05,辛集,中国,河北省,石家庄市,辛集市,54701,37.9333,115.2,35.9
54702,2022-08-08 18:00:00,1005.0,1007.5,1005.4,1004.9,2.9,6.5,21,36,2.1,27,20.4,20.4,20.2,94,92,2.2,2,20.95,衡水,中国,河北省,衡水市,桃城区,54702,37.7333,115.7,20.7
54703,2022-08-08 18:00:00,1005.1,1007.6,1005.5,1005.0,4.9,7.4,13,12,2.8,11,19.9,20.3,19.9,95,94,3.1,2,20.43,武邑,中国,河北省,衡水市,武邑县,54703,37.7858,115.9044,20.7
54704,2022-08-08 18:00:00,1004.3,1007.3,1004.7,1004.3,5.1,9.5,24,33,6.0,15,20.4,20.6,20.4,96,95,0.1,3,21.0,冀州,中国,河北省,衡水市,冀州区,54704,37.5122,115.5614,24.8
54705,2022-08-08 18:00:00,1004.2,1007.5,1004.7,1004.2,2.8,6.2,4,9,2.4,2,19.9,20.2,19.9,96,96,0.0,2,20.45,南宫,中国,河北省,邢台市,南宫市,54705,37.3667,115.3833,27.4
54706,2022-08-08 18:00:00,1002.8,1006.3,1003.2,1002.8,3.6,7.1,355,352,3.2,352,20.4,20.7,20.4,97,96,0.0,2,21.03,清河,中国,河北省,邢台市,清河县,54706,37.0833,115.6667,31.5
54707,2022-08-08 18:00:00,1003.2,1006.5,1003.8,1003.2,4.3,7.0,356,7,3.1,1,21.1,21.9,21.1,96,95,1.0,3,21.77,故城,中国,河北省,衡水市,故城县,54707,37.35,115.9833,27.4
54708,2022-08-08 18:00:00,1004.0,1006.9,1004.5,1004.0,4.5,9.8,26,29,4.9,29,20.1,20.5,20.1,100,100,0.2,3,20.78,枣强,中国,河北省,衡水市,枣强县,54708,37.5,115.7333,23.6
54710,2022-08-08 18:00:00,1005.2,1007.2,1005.5,1005.2,3.6,7.3,26,35,2.6,23,20.4,20.7,20.4,100,100,0.5,2,21.11,阜城,中国,河北省,衡水市,阜城县,54710,37.8447,116.1506,15.8
54711,2022-08-08 18:00:00,1004.8,1006.7,1004.9,1004.6,3.2,7.6,25,347,3.0,20,21.1,21.8,21.1,100,100,1.6,2,21.88,景县,中国,河北省,衡水市,景县,54711,37.6686,116.265,15.0
54713,2022-08-08 18:00:00,1005.1,1006.9,1005.5,1004.9,5.1,8.3,50,11,2.8,50,21.0,21.4,20.9,96,96,2.5,2,21.66,东光,中国,河北省,沧州市,东光县,54713,37.8833,116.5333,14.4
54717,2022-08-08 18:00:00,1004.6,1006.7,1004.6,1004.3,4.8,8.0,39,37,1.9,39,21.0,21.7,21.0,96,95,9.2,2,21.66,吴桥,中国,河北省,沧州市,吴桥县,54717,37.6333,116.4,17.1
54719,2022-08-08 18:00:00,1005.5,1006.9,1006.7,1005.4,4.4,6.5,61,358,3.7,55,20.7,21.2,20.7,95,92,6.9,3,21.31,南皮,中国,河北省,沧州市,南皮县,54719,38.0119,116.6822,10.8
54800,2022-08-08 18:00:00,1003.1,1007.1,1003.4,1003.1,4.9,8.6,3,356,4.6,5,19.8,20.1,19.8,100,100,0.0,3,20.45,威县,中国,河北省,邢台市,威县,54800,37.0,115.25,33.3
54801,2022-08-08 18:00:00,1002.2,1006.4,1002.5,1002.2,4.7,10.0,320,336,3.5,339,20.3,20.8,20.3,99,99,0.0,3,20.97,临西,中国,河北省,邢台市,临西县,54801,36.85,115.4833,35.3
54804,2022-08-08 18:00:00,1001.4,1006.7,1001.5,1001.3,3.6,7.2,338,331,2.4,343,21.4,22.0,21.4,96,94,0.0,2,22.1,大名,中国,河北省,邯郸市,大名县,54804,36.3042,115.1814,45.3
54809,2022-08-08 18:00:00,1001.7,1006.6,1001.8,1001.6,3.1,7.6,334,348,3.1,343,21.0,21.8,21.0,94,94,0.0,2,21.61,馆陶,中国,河北省,邯郸市,馆陶县,54809,36.55,115.2833,41.3
54820,2022-08-08 18:00:00,1002.2,1006.8,1002.6,1002.2,5.2,9.4,348,344,5.3,348,20.2,20.8,20.2,99,97,0.0,3,20.86,邱县,中国,河北省,邯郸市,邱县,54820,36.81,115.2078,39.0
53992,2022-08-08 18:00:00,999.4,1006.2,999.5,999.1,5.6,9.8,349,355,3.9,359,23.8,24.0,23.8,82,82,0.0,3,24.38,浚县,中国,河南省,鹤壁市,浚县,53992,35.6589,114.5183,58.2
53993,2022-08-08 18:00:00,1000.2,1006.2,1000.4,1000.2,5.1,8.6,6,339,4.2,354,23.3,23.5,23.3,86,84,0.0,3,23.93,内黄,中国,河南省,安阳市,内黄县,53993,35.9425,114.91,51.6
53998,2022-08-08 18:00:00,998.3,1005.4,998.5,998.2,3.2,8.4,358,345,2.4,348,24.2,24.6,24.2,99,99,0.0,2,25.26,长垣,中国,河南省,新乡市,长垣县,53998,35.1933,114.6547,61.6
54817,2022-08-08 18:00:00,1000.0,1005.0,1000.4,999.9,2.9,5.2,290,304,1.9,309,24.2,25.2,24.2,100,100,0.2,2,25.29,台前,中国,河南省,濮阳市,台前县,54817,35.9842,115.8619,42.1
54900,2022-08-08 18:00:00,999.8,1006.1,1000.0,999.5,5.0,8.4,333,331,6.1,333,23.0,23.8,23.0,100,92,4.9,3,23.97,濮阳,中国,河南省,濮阳市,濮阳县,54900,35.6967,115.0317,53.7
54901,2022-08-08 18:00:00,1000.4,1005.9,1000.6,1000.3,4.9,8.1,3,351,4.6,356,21.9,22.7,21.9,96,96,0.0,3,22.65,南乐,中国,河南省,濮阳市,南乐县,54901,36.0581,115.2414,46.6
54902,2022-08-08 18:00:00,1000.3,1006.1,1000.5,1000.1,4.2,8.9,344,337,5.4,345,22.4,22.7,22.4,94,94,0.0,3,23.15,清丰,中国,河南省,濮阳市,清丰县,54902,35.9419,115.1428,49.3
54903,2022-08-08 18:00:00,1000.2,1005.6,1000.4,1000.1,3.6,6.0,334,330,3.3,332,22.8,23.2,22.8,100,100,0.0,2,23.75,范县,中国,河南省,濮阳市,范县,54903,35.8492,115.4761,46.0
57093,2022-08-08 18:00:00,996.6,1004.7,996.9,996.6,3.9,7.0,11,21,3.7,19,24.5,25.0,24.5,98,97,0.0,2,25.56,兰考,中国,河南省,开封市,兰考县,57093,34.8611,114.7989,70.8
57096,2022-08-08 18:00:00,997.5,1004.4,997.6,997.5,3.0,8.2,23,54,2.7,38,25.8,27.3,25.8,96,95,0.0,2,27.68,杞县,中国,河南省,开封市,杞县,57096,34.5406,114.7819,59.7
57099,2022-08-08 18:00:00,998.0,1004.0,998.0,997.6,2.4,4.4,339,11,1.6,349,29.4,31.7,29.4,87,75,0.0,2,37.72,太康,中国,河南省,周口市,太康县,57099,34.0744,114.8497,52.6
58001,2022-08-08 18:00:00,997.7,1004.1,997.8,997.7,3.9,5.9,17,8,4.3,11,26.7,28.1,26.7,100,98,0.0,2,31.93,睢县,中国,河南省,商丘市,睢县,58001,34.4769,115.0325,56.1
58004,2022-08-08 18:00:00,997.2,1004.3,997.3,997.1,5.3,7.7,8,5,3.3,5,26.5,28.0,26.5,100,100,0.0,3,30.08,民权,中国,河南省,商丘市,民权县,58004,34.6194,115.1944,61.6
58005,2022-08-08 18:00:00,998.0,1003.8,998.1,997.9,3.8,5.9,340,1,3.2,349,28.5,29.8,28.5,91,91,0.0,2,35.83,商丘,中国,河南省,商丘市,梁园区,58005,34.4372,115.5353,50.8
58006,2022-08-08 18:00:00,997.9,1003.3,998.1,997.9,0.4,0.9,158,999017,0.0,155,29.3,29.3,29.1,93,93,0.0,0,39.17,虞城,中国,河南省,商丘市,虞城县,58006,34.3903,115.8794,46.3
58007,2022-08-08 18:00:00,997.9,1003.2,998.0,997.9,0.6,0.9,211,210,0.7,204,29.2,29.2,29.0,100,100,0.0,1,41.0,柘城,中国,河南省,商丘市,柘城县,58007,34.0983,115.3592,45.7
58008,2022-08-08 18:00:00,997.6,1004.0,997.7,997.6,4.1,6.5,17,25,3.5,21,27.6,28.3,27.6,100,100,0.0,3,34.95,宁陵,中国,河南省,商丘市,宁陵县,58008,34.4867,115.3156,55.8
58017,2022-08-08 18:00:00,998.4,1003.3,998.7,998.4,1.4,1.7,158,151,1.0,145,28.9,29.2,28.9,98,97,0.0,1,39.19,夏邑,中国,河南省,商丘市,夏邑县,58017,34.2831,116.1508,42.6
