Station_Id_C,dt,PRS,PRS_Sea,PRS_Max,PRS_Min,WIN_S_Max,WIN_S_Inst_Max,WIN_D_INST_Max,WIN_D_Avg_2mi,WIN_S_Avg_2mi,WIN_D_S_Max,TEM,TEM_Max,TEM_Min,RHU,RHU_Min,PRE_1h,windpower,tigan,Station_Name,Country,Province,City,Cnty,Station_Id_d,Lat,Lon,Alti
58015,2022-08-08 01:00:00,997.9,1002.7,998.0,997.5,3.6,5.1,177,198,2.9,191,31.7,31.8,31.2,70,69,0.0,2,39.54,砀山,中国,安徽省,宿州市,砀山县,58015,34.4389,116.3397,42.1
58016,2022-08-08 01:00:00,999.2,1003.2,999.3,999.0,3.4,6.3,188,189,4.0,190,33.8,34.1,32.4,62,62,0.0,2,42.46,萧县,中国,安徽省,宿州市,萧县,58016,34.1803,116.9628,34.9
58116,2022-08-08 01:00:00,999.5,1003.3,999.6,999.2,3.4,5.6,177,179,3.6,178,33.9,33.9,32.3,63,63,0.0,2,43.18,淮北,中国,安徽省,淮北市,杜集区,58116,34.0333,116.8689,32.9
58012,2022-08-08 01:00:00,998.4,1003.2,998.5,998.0,3.0,5.3,195,225,3.0,212,32.2,32.2,31.1,75,74,0.0,2,42.97,丰县,中国,江苏省,徐州市,丰县,58012,34.6719,116.6561,42.0
58013,2022-08-08 01:00:00,999.1,1003.3,999.1,998.8,2.5,4.8,232,191,1.3,223,32.4,32.4,31.6,68,66,0.0,2,40.83,沛县,中国,江苏省,徐州市,沛县,58013,34.7533,116.9058,36.5
58026,2022-08-08 01:00:00,1000.9,1003.9,1000.9,1000.4,2.6,4.0,210,215,2.3,209,34.0,34.0,32.6,62,61,0.0,2,43.03,邳州,中国,江苏省,徐州市,邳州市,58026,34.3942,118.0189,25.7
58027,2022-08-08 01:00:00,998.7,1003.4,998.8,998.5,2.5,5.1,181,187,1.9,188,33.6,33.8,33.1,60,58,0.0,2,41.09,徐州,中国,江苏省,徐州市,市辖区,58027,34.2872,117.1586,41.2
58035,2022-08-08 01:00:00,1000.7,1004.1,1000.8,1000.4,2.7,4.4,200,204,1.4,209,33.7,33.7,32.4,68,67,0.0,2,44.82,新沂,中国,江苏省,徐州市,新沂市,58035,34.3319,118.3536,29.3
58036,2022-08-08 01:00:00,1000.4,1004.2,1000.4,1000.3,2.7,4.3,162,178,2.4,173,32.8,32.8,31.4,73,72,0.0,2,44.12,东海,中国,江苏省,连云港市,东海县,58036,34.5425,118.7136,32.9
58038,2022-08-08 01:00:00,1003.4,1004.7,1003.4,1003.0,3.1,5.1,204,197,2.8,206,32.7,32.7,31.9,72,71,0.0,2,43.36,沭阳,中国,江苏省,宿迁市,沭阳县,58038,34.0911,118.7836,10.4
58040,2022-08-08 01:00:00,1003.4,1004.1,1003.5,1003.3,3.4,5.5,174,188,2.7,180,33.2,33.2,32.5,70,70,0.0,2,44.11,赣榆,中国,江苏省,连云港市,赣榆区,58040,34.8564,119.1269,5.3
58041,2022-08-08 01:00:00,1001.1,1004.2,1001.2,1001.0,4.9,6.7,213,216,2.7,212,34.4,34.4,32.9,61,61,0.0,2,43.75,西连岛,中国,江苏省,连云港市,连云区,58041,34.7778,119.4425,26.2
58044,2022-08-08 01:00:00,1003.8,1004.5,1003.9,1003.7,3.0,4.4,204,210,2.7,205,32.1,32.1,31.6,76,75,0.0,2,43.05,连云港,中国,江苏省,连云港市,市辖区,58044,34.5489,119.2347,4.7
58045,2022-08-08 01:00:00,1004.1,1004.8,1004.2,1003.8,2.8,5.0,212,207,1.9,205,32.1,32.1,31.3,77,74,0.0,2,43.46,响水,中国,江苏省,盐城市,响水县,58045,34.1142,119.3606,4.4
58047,2022-08-08 01:00:00,1004.0,1004.7,1004.0,1003.6,3.2,5.4,193,215,2.0,202,32.3,32.3,31.8,72,70,0.0,2,42.08,灌云,中国,江苏省,连云港市,灌云县,58047,34.2575,119.2361,4.8
58048,2022-08-08 01:00:00,1003.7,1004.7,1003.8,1003.4,3.6,5.1,202,201,3.1,199,33.1,33.1,32.1,72,71,0.0,3,44.68,灌南,中国,江苏省,连云港市,灌南县,58048,34.0639,119.2928,8.0
58049,2022-08-08 01:00:00,1004.6,1005.2,1004.6,1004.3,3.2,5.4,196,197,3.0,191,32.6,32.6,32.1,72,71,0.0,2,43.04,滨海,中国,江苏省,盐城市,滨海县,58049,34.0164,119.8031,4.1
54709,2022-08-08 01:00:00,1001.1,1004.1,1001.1,1000.4,7.7,11.5,349,75,2.1,343,26.2,27.9,26.2,100,100,29.7,2,29.07,武城,中国,山东省,德州市,武城县,54709,37.2333,116.0667,24.8
54712,2022-08-08 01:00:00,1001.8,1004.0,1001.9,1000.9,5.2,9.1,25,76,4.8,32,27.1,29.7,27.1,98,92,2.1,3,32.85,临邑,中国,山东省,德州市,临邑县,54712,37.2,116.8167,18.5
54714,2022-08-08 01:00:00,1000.9,1003.9,1000.9,999.9,3.9,5.6,25,41,2.1,41,27.3,28.3,27.3,99,98,2.4,2,33.71,德州,中国,山东省,德州市,德城区,54714,37.35,116.3333,25.4
54715,2022-08-08 01:00:00,1001.7,1003.8,1001.7,1001.2,5.9,9.7,41,90,1.2,43,27.2,28.7,26.9,95,92,10.5,2,32.59,陵城,中国,山东省,临沂市,兰陵县,54715,37.3167,116.5167,17.6
54716,2022-08-08 01:00:00,1001.9,1004.0,1002.0,1001.8,3.8,7.3,62,64,5.0,66,27.3,27.3,26.8,92,92,0.0,3,32.32,宁津,中国,山东省,德州市,宁津县,54716,37.6667,116.8,17.3
54722,2022-08-08 01:00:00,1004.0,1004.9,1004.0,1003.2,5.7,10.2,62,69,4.7,59,26.7,26.9,26.4,100,100,2.0,3,31.93,无棣,中国,山东省,滨州市,无棣县,54722,37.75,117.6333,6.8
54723,2022-08-08 01:00:00,1003.7,1005.0,1003.7,1003.3,2.1,4.0,60,64,1.5,63,26.7,26.7,26.2,96,96,3.3,1,31.26,阳信,中国,山东省,滨州市,阳信县,54723,37.65,117.5667,10.1
54724,2022-08-08 01:00:00,1003.0,1004.8,1003.1,1002.1,4.8,7.0,355,31,2.7,28,26.3,27.3,26.3,97,94,8.7,2,29.22,商河,中国,山东省,济南市,商河县,54724,37.3167,117.1333,14.8
54725,2022-08-08 01:00:00,1003.2,1004.7,1003.4,1002.9,3.6,6.5,13,54,1.5,23,26.2,26.2,25.9,100,100,14.4,1,29.07,惠民,中国,山东省,滨州市,惠民县,54725,37.5,117.5333,11.7
54726,2022-08-08 01:00:00,1003.3,1004.7,1003.3,1002.6,3.5,6.6,62,82,2.3,73,26.8,26.8,26.3,100,100,1.0,2,32.25,乐陵,中国,山东省,德州市,乐陵市,54726,37.7,117.1833,11.5
54727,2022-08-08 01:00:00,973.9,1003.3,973.9,973.5,5.6,7.5,175,173,5.9,176,29.6,29.6,29.4,77,76,0.0,4,35.71,章丘,中国,山东省,济南市,章丘区,54727,36.65,117.5167,263.0
54728,2022-08-08 01:00:00,1003.4,1004.7,1003.4,1002.9,3.8,7.4,98,88,3.5,80,26.7,26.7,26.1,100,100,1.3,3,31.93,庆云,中国,山东省,德州市,庆云县,54728,37.7667,117.35,10.5
54729,2022-08-08 01:00:00,1002.9,1004.3,1002.9,1002.1,5.1,7.9,61,33,2.9,63,27.3,28.5,27.3,93,88,3.7,2,32.51,高青,中国,山东省,淄博市,高青县,54729,37.1667,117.8667,11.5
54734,2022-08-08 01:00:00,1002.5,1004.7,1002.6,1001.8,6.5,10.8,84,75,5.3,79,26.3,27.0,26.3,97,96,10.3,3,29.22,滨州,中国,山东省,滨州市,滨城区,54734,37.35,118.0333,17.8
54736,2022-08-08 01:00:00,1004.4,1005.2,1004.4,1003.3,3.8,7.7,64,77,2.8,45,27.4,27.8,27.4,92,89,1.0,2,32.61,东营,中国,山东省,东营市,东营区,54736,37.4333,118.6667,6.0
54744,2022-08-08 01:00:00,1004.0,1005.1,1004.0,1003.1,5.2,10.2,66,67,5.0,61,26.5,27.3,26.4,95,92,2.6,3,29.71,垦利,中国,山东省,东营市,垦利区,54744,37.5833,118.55,8.5
54749,2022-08-08 01:00:00,999.5,1005.1,999.5,998.8,4.0,7.5,39,76,2.0,54,26.5,27.5,26.4,92,88,5.2,2,29.49,莱州,中国,山东省,烟台市,莱州市,54749,37.1833,119.95,48.4
54751,2022-08-08 01:00:00,1000.3,1005.0,1000.5,1000.1,6.2,11.1,52,57,3.4,47,25.5,25.5,25.1,100,100,2.5,3,26.83,长岛,中国,山东省,烟台市,长岛县,54751,37.9392,120.7256,39.7
54752,2022-08-08 01:00:00,998.4,1005.4,998.5,998.1,3.6,6.4,79,95,2.0,68,25.0,25.6,25.0,97,96,4.2,2,26.09,蓬莱,中国,山东省,烟台市,蓬莱市,54752,37.8,120.7667,60.7
54753,2022-08-08 01:00:00,1005.0,1005.7,1005.0,1004.5,3.7,6.7,79,91,2.4,83,25.6,25.6,25.2,100,100,1.9,2,27.14,龙口,中国,山东省,烟台市,龙口市,54753,37.6333,120.3333,4.8
54755,2022-08-08 01:00:00,992.1,1005.6,992.1,991.3,5.1,7.6,20,41,2.7,350,26.1,26.5,26.1,93,91,1.3,2,28.43,招远,中国,山东省,烟台市,招远市,54755,37.3283,120.3869,117.8
54759,2022-08-08 01:00:00,982.3,1005.6,982.5,981.8,6.9,11.1,29,50,4.5,37,24.9,25.7,24.8,100,96,1.5,3,26.06,栖霞,中国,山东省,烟台市,栖霞市,54759,37.3247,120.8519,205.5
54764,2022-08-08 01:00:00,999.3,1005.6,999.3,998.5,7.0,12.6,19,43,2.5,16,25.7,26.6,25.7,93,92,0.5,2,27.34,福山,中国,山东省,烟台市,福山区,54764,37.4833,121.2333,53.9
54765,2022-08-08 01:00:00,996.1,1005.5,996.1,995.3,7.7,11.7,352,4,5.1,355,25.3,26.7,25.3,97,93,3.2,4,26.42,烟台,中国,山东省,烟台市,莱山区,54765,37.4833,121.4333,82.0
54776,2022-08-08 01:00:00,998.9,1004.5,999.2,998.8,4.7,9.5,13,12,7.1,6,26.0,27.3,26.0,95,94,0.0,3,28.23,成山头,中国,山东省,威海市,荣成市,54776,37.4,122.7,47.7
54777,2022-08-08 01:00:00,991.3,1004.7,991.3,990.6,2.3,3.0,1,355,2.3,251,29.2,29.3,29.2,89,88,0.0,2,37.62,文登,中国,山东省,威海市,文登区,54777,37.2,122.0667,118.0
54802,2022-08-08 01:00:00,999.6,1003.6,999.6,998.7,5.9,9.5,62,41,4.3,37,28.1,29.4,28.1,91,89,0.0,4,34.54,临清,中国,山东省,聊城市,临清市,54802,36.8167,115.7333,34.0
54806,2022-08-08 01:00:00,998.6,1002.8,998.7,998.3,1.5,2.0,164,6,0.6,163,30.3,31.1,30.3,87,80,0.0,1,40.85,聊城,中国,山东省,聊城市,东昌府区,54806,36.3494,115.9761,36.1
54807,2022-08-08 01:00:00,997.8,1002.6,997.9,997.4,1.0,1.1,343,63,0.5,163,30.5,31.3,30.4,87,79,0.0,1,41.58,阳谷,中国,山东省,聊城市,阳谷县,54807,36.15,115.7667,41.2
54808,2022-08-08 01:00:00,998.5,1003.0,998.5,997.9,1.3,1.8,123,999017,0.0,135,29.5,30.2,29.5,91,84,0.0,0,39.27,莘县,中国,山东省,聊城市,莘县,54808,36.2156,115.6267,38.7
54812,2022-08-08 01:00:00,999.9,1002.8,1000.1,999.6,1.9,2.6,142,87,1.0,136,31.1,31.2,30.1,96,89,0.0,1,47.67,齐河,中国,山东省,德州市,齐河县,54812,36.7333,116.7167,24.7
54814,2022-08-08 01:00:00,999.1,1002.6,999.6,998.9,1.6,2.0,141,115,1.4,136,29.5,30.0,29.5,94,90,0.0,2,40.23,茌平,中国,山东省,聊城市,茌平县,54814,36.5333,116.25,29.7
54815,2022-08-08 01:00:00,998.9,1002.6,999.2,998.6,2.0,2.7,163,81,0.7,156,30.6,30.9,30.5,84,80,0.0,1,40.9,东阿,中国,山东省,聊城市,东阿县,54815,36.3833,116.2667,31.4
54816,2022-08-08 01:00:00,991.9,1003.1,991.9,991.3,3.0,4.4,135,150,1.6,133,31.2,31.2,30.3,77,76,0.0,2,40.47,长清,中国,山东省,济南市,长清区,54816,36.5167,116.8,98.9
54818,2022-08-08 01:00:00,994.1,1003.2,994.1,993.5,2.7,3.8,155,144,1.3,164,30.9,31.2,30.8,79,76,0.0,2,40.2,平阴,中国,山东省,济南市,平阴县,54818,36.25,116.4167,79.9
54819,2022-08-08 01:00:00,990.3,1003.2,990.3,989.9,1.2,2.5,132,99,0.9,123,31.8,31.8,30.4,75,73,0.0,1,41.66,肥城,中国,山东省,泰安市,肥城市,54819,36.1833,116.8,113.6
54821,2022-08-08 01:00:00,1001.5,1003.9,1001.5,1000.5,5.2,9.3,30,29,5.3,34,28.4,29.5,28.4,89,88,0.0,3,35.01,济阳,中国,山东省,济南市,济阳县,54821,37.0,117.2,20.4
54822,2022-08-08 01:00:00,997.8,1003.3,997.9,997.2,3.6,7.6,350,10,2.9,349,30.0,30.7,30.0,89,81,0.0,3,40.44,邹平,中国,山东省,滨州市,邹平县,54822,36.8667,117.7333,47.4
54823,2022-08-08 01:00:00,984.2,1003.3,984.3,983.9,1.7,3.9,190,102,2.2,174,30.4,30.8,30.4,74,70,0.0,2,37.13,济南,中国,山东省,济南市,市中区,54823,36.6019,117.0081,170.3
54824,2022-08-08 01:00:00,992.6,1003.4,992.7,992.3,1.3,2.6,193,209,0.7,199,30.2,30.2,29.6,80,79,0.0,1,38.29,淄川,中国,山东省,淄博市,淄川区,54824,36.6333,117.95,95.0
54825,2022-08-08 01:00:00,981.1,1002.3,981.2,980.7,2.1,3.8,170,173,1.6,178,30.3,30.3,29.9,61,61,0.0,2,33.63,博山,中国,山东省,淄博市,博山区,54825,36.5167,117.85,189.7
54826,2022-08-08 01:00:00,844.1,1006.5,844.2,843.9,5.1,9.0,233,225,5.6,225,21.2,21.4,20.9,100,100,0.0,3,21.99,泰山,中国,山东省,泰安市,泰山区,54826,36.25,117.1,1533.7
54827,2022-08-08 01:00:00,989.2,1003.7,989.3,989.0,1.9,2.5,103,92,1.7,89,31.4,31.9,31.3,73,68,0.0,2,39.7,泰安,中国,山东省,泰安市,泰山区,54827,36.1667,117.15,128.6
54828,2022-08-08 01:00:00,977.7,1003.3,978.1,977.7,1.3,1.9,84,89,1.1,93,30.1,30.1,29.7,81,78,0.0,1,38.27,莱芜,中国,山东省,莱芜市, ,54828,36.2333,117.6833,229.3
54829,2022-08-08 01:00:00,993.6,1003.4,993.6,993.3,1.7,2.3,189,189,1.2,183,29.4,29.4,29.2,85,84,0.0,1,37.14,周村,中国,山东省,淄博市,周村区,54829,36.7667,117.8667,85.7
54830,2022-08-08 01:00:00,999.3,1003.3,999.3,998.8,1.6,2.1,191,135,0.4,194,29.5,29.5,29.1,87,85,0.0,0,38.05,淄博,中国,山东省,淄博市,张店区,54830,36.8167,117.9333,34.4
54831,2022-08-08 01:00:00,991.3,1003.0,991.3,991.1,1.4,1.9,200,125,0.9,196,30.3,30.3,29.5,83,79,0.0,1,39.53,青州,中国,山东省,潍坊市,青州市,54831,36.65,118.5,102.5
54832,2022-08-08 01:00:00,1001.3,1004.1,1001.3,1000.4,3.3,6.7,17,30,3.0,19,29.7,30.7,29.7,84,76,0.0,2,37.85,寿光,中国,山东省,潍坊市,寿光市,54832,36.8631,118.7953,23.4
54833,2022-08-08 01:00:00,1002.1,1003.9,1002.1,1001.0,3.0,6.8,61,50,2.0,23,28.2,31.6,28.2,94,75,0.0,2,35.59,桓台,中国,山东省,淄博市,桓台县,54833,36.9667,118.0833,15.1
54834,2022-08-08 01:00:00,998.3,1003.7,998.3,997.5,3.4,6.0,27,29,3.5,45,29.8,30.1,29.6,82,80,0.0,3,37.61,临淄,中国,山东省,淄博市,临淄区,54834,36.8667,118.2833,46.3
54835,2022-08-08 01:00:00,986.8,1003.7,986.8,986.6,2.4,3.7,205,203,1.8,217,30.6,30.6,29.6,75,75,0.0,2,37.99,临朐,中国,山东省,潍坊市,临朐县,54835,36.4733,118.5606,149.5
54836,2022-08-08 01:00:00,970.1,1004.1,970.4,970.1,0.6,1.5,7,49,0.7,58,29.3,29.3,28.5,84,84,0.0,0,36.57,沂源,中国,山东省,淄博市,沂源县,54836,36.1833,118.1667,305.1
54837,2022-08-08 01:00:00,994.6,1003.6,994.6,994.2,1.7,2.9,124,88,0.9,96,31.1,31.1,30.5,82,82,0.0,1,41.95,昌乐,中国,山东省,潍坊市,昌乐县,54837,36.6797,118.8361,78.8
54841,2022-08-08 01:00:00,1001.5,1004.3,1001.5,1000.9,4.6,7.7,28,31,4.8,32,29.4,30.2,29.4,86,82,0.0,3,37.43,昌邑,中国,山东省,潍坊市,昌邑市,54841,36.8617,119.4181,23.5
54842,2022-08-08 01:00:00,997.0,1004.1,997.0,996.7,1.6,2.7,229,243,0.8,202,30.4,30.4,30.0,86,85,0.0,1,40.87,平度,中国,山东省,青岛市,平度市,54842,36.7833,120.0,62.2
54843,2022-08-08 01:00:00,1001.1,1003.7,1001.1,1000.8,1.6,2.8,193,239,0.8,203,31.5,31.5,31.3,71,71,0.0,1,39.31,潍坊,中国,山东省,潍坊市,寒亭区,54843,36.75,119.2,22.2
54844,2022-08-08 01:00:00,996.6,1003.8,996.6,996.3,1.4,3.2,177,189,1.5,188,31.5,31.5,29.8,79,77,0.0,1,42.2,安丘,中国,山东省,潍坊市,安丘市,54844,36.4167,119.1833,62.7
54846,2022-08-08 01:00:00,998.1,1004.0,998.1,997.8,1.7,3.3,197,215,1.3,194,30.8,30.8,30.0,79,79,0.0,1,39.87,高密,中国,山东省,潍坊市,高密市,54846,36.3853,119.7361,51.5
54848,2022-08-08 01:00:00,991.8,1004.1,991.9,991.5,0.5,1.3,217,230,0.4,228,32.1,32.2,31.0,77,76,0.0,1,43.46,诸城,中国,山东省,潍坊市,诸城市,54848,35.9633,119.4847,109.0
54849,2022-08-08 01:00:00,994.7,1004.3,994.7,994.4,2.8,3.6,208,273,0.9,199,31.4,31.4,30.6,83,83,0.0,1,43.41,胶州,中国,山东省,青岛市,胶州市,54849,36.2167,120.0333,84.4
54851,2022-08-08 01:00:00,996.1,1004.9,996.1,995.3,1.7,3.3,330,334,2.4,235,29.9,29.9,29.5,88,88,0.0,1,39.75,莱西,中国,山东省,青岛市,莱西市,54851,36.9,120.5667,76.9
54852,2022-08-08 01:00:00,1000.1,1004.9,1000.1,999.1,3.5,6.4,1,5,4.1,9,29.2,29.6,29.2,96,95,0.0,3,39.73,莱阳,中国,山东省,烟台市,莱阳市,54852,36.9667,120.7167,41.6
54853,2022-08-08 01:00:00,998.1,1004.3,998.1,997.9,1.6,2.2,103,124,1.3,102,31.2,31.3,30.7,87,84,0.0,1,44.26,崂山,中国,山东省,青岛市,李沧区,54853,36.1333,120.5167,54.0
54855,2022-08-08 01:00:00,998.9,1004.4,998.9,998.6,1.4,2.5,203,238,1.1,213,31.6,31.6,31.3,83,81,0.0,1,44.16,即墨,中国,山东省,青岛市,即墨区,54855,36.4,120.3833,47.8
54857,2022-08-08 01:00:00,995.6,1004.3,995.6,995.4,2.2,3.4,161,169,2.4,178,31.3,31.3,30.5,81,79,0.0,2,42.27,青岛,中国,山东省,青岛市,市南区,54857,36.0667,120.3333,76.0
54861,2022-08-08 01:00:00,999.2,1004.5,999.2,998.6,1.1,1.7,204,267,0.8,193,30.8,30.8,30.4,80,80,0.0,1,40.21,乳山,中国,山东省,威海市,乳山市,54861,36.9333,121.5333,45.4
54863,2022-08-08 01:00:00,999.7,1004.5,999.7,999.3,0.9,1.7,262,279,0.7,278,30.7,30.7,30.0,85,85,0.0,1,41.61,海阳,中国,山东省,烟台市,海阳市,54863,36.775,121.1783,40.9
54871,2022-08-08 01:00:00,1003.3,1004.5,1003.3,1002.9,4.5,6.1,219,228,3.0,216,30.1,30.1,29.2,92,92,0.0,2,41.84,石岛,中国,山东省,威海市,荣成市,54871,36.9333,122.4833,9.8
54904,2022-08-08 01:00:00,997.2,1002.9,997.2,996.6,1.2,1.9,40,167,0.9,174,31.5,31.6,31.4,74,73,0.0,1,40.35,鄄城,中国,山东省,菏泽市,鄄城县,54904,35.5833,115.5167,50.1
54905,2022-08-08 01:00:00,997.7,1003.0,997.7,997.4,1.8,2.6,218,254,1.1,191,32.2,32.4,31.4,73,72,0.0,1,42.16,郓城,中国,山东省,菏泽市,郓城县,54905,35.5833,115.9333,46.2
54906,2022-08-08 01:00:00,996.8,1002.6,996.8,996.2,1.4,2.0,143,101,0.7,123,32.4,32.9,32.1,74,73,0.0,1,43.22,菏泽,中国,山东省,菏泽市,牡丹区,54906,35.3167,115.5333,50.7
54907,2022-08-08 01:00:00,999.2,1003.2,999.2,998.5,2.7,4.0,169,196,2.4,184,32.6,32.6,31.0,71,70,0.0,2,42.62,鱼台,中国,山东省,济宁市,鱼台县,54907,34.9833,116.65,34.3
54908,2022-08-08 01:00:00,995.8,1002.4,995.8,995.0,1.4,2.0,174,281,0.3,183,31.8,31.8,31.1,76,75,0.0,1,42.05,东明,中国,山东省,菏泽市,东明县,54908,35.2667,115.1,57.3
54909,2022-08-08 01:00:00,996.8,1002.7,996.8,996.1,2.0,3.1,210,160,1.6,192,31.8,31.8,30.9,79,77,0.0,1,43.24,定陶,中国,山东省,菏泽市,定陶区,54909,35.0833,115.5167,51.5
54910,2022-08-08 01:00:00,998.0,1002.7,998.1,997.7,2.3,3.3,214,205,2.3,185,31.2,31.8,30.9,81,78,0.0,2,41.92,梁山,中国,山东省,济宁市,梁山县,54910,35.8125,116.0533,40.9
54911,2022-08-08 01:00:00,997.9,1003.0,998.2,997.3,2.2,3.5,148,133,0.9,136,31.7,32.2,31.5,78,73,0.0,2,42.49,东平,中国,山东省,泰安市,东平县,54911,35.9333,116.4,44.0
54912,2022-08-08 01:00:00,997.9,1002.7,998.3,997.7,1.9,2.8,162,118,1.7,181,33.1,33.3,32.1,71,68,0.0,1,44.23,汶上,中国,山东省,济宁市,汶上县,54912,35.7667,116.5,41.8
54913,2022-08-08 01:00:00,995.2,1002.9,995.5,995.1,2.0,3.6,159,175,1.4,179,33.0,33.0,31.3,67,67,0.0,2,42.21,宁阳,中国,山东省,泰安市,宁阳县,54913,35.7953,116.8067,67.6
54914,2022-08-08 01:00:00,998.2,1002.9,998.2,997.7,2.0,3.7,219,310,1.0,207,32.6,32.6,31.4,79,78,0.0,1,46.13,巨野,中国,山东省,菏泽市,巨野县,54914,35.4167,116.0833,40.6
54915,2022-08-08 01:00:00,998.3,1002.2,998.4,998.0,1.8,4.0,264,221,1.4,235,33.1,33.3,32.4,65,64,0.0,1,41.69,济宁,中国,山东省,济宁市,任城区,54915,35.4411,116.6014,33.3
54916,2022-08-08 01:00:00,997.3,1002.3,997.5,997.2,2.8,4.9,183,213,2.1,182,32.6,32.9,32.1,73,69,0.0,2,43.46,兖州,中国,山东省,济宁市,兖州区,54916,35.5333,116.8333,43.3
54917,2022-08-08 01:00:00,998.9,1003.1,998.9,998.3,2.4,3.6,183,205,1.7,191,32.3,32.7,31.4,70,69,0.0,2,41.3,金乡,中国,山东省,济宁市,金乡县,54917,35.1333,116.3333,35.8
54918,2022-08-08 01:00:00,995.8,1002.9,996.1,995.8,2.7,5.3,213,190,2.2,213,33.7,33.7,32.4,64,64,0.0,2,43.02,曲阜,中国,山东省,济宁市,曲阜市,54918,35.6,116.9733,62.3
54919,2022-08-08 01:00:00,993.3,1003.5,993.3,992.9,2.8,4.5,196,206,1.7,191,33.1,33.1,31.7,65,64,0.0,2,41.69,邹城,中国,山东省,济宁市,邹城市,54919,35.3667,116.9833,89.8
54920,2022-08-08 01:00:00,990.9,1003.4,991.1,990.8,1.8,2.7,169,170,1.3,154,32.1,32.3,31.1,70,69,0.0,2,40.7,泗水,中国,山东省,济宁市,泗水县,54920,35.65,117.2833,110.4
54921,2022-08-08 01:00:00,998.3,1002.6,998.5,998.1,2.6,4.8,219,152,1.7,192,32.9,33.0,31.4,69,69,0.0,2,42.73,嘉祥,中国,山东省,济宁市,嘉祥县,54921,35.4333,116.2833,37.1
54922,2022-08-08 01:00:00,980.5,1003.6,980.8,980.4,1.6,2.6,124,121,1.3,123,30.5,30.5,29.6,81,81,0.0,1,39.56,新泰,中国,山东省,泰安市,新泰市,54922,35.8667,117.75,206.0
54923,2022-08-08 01:00:00,971.8,1003.6,972.0,971.7,1.6,2.4,99,89,1.4,107,31.6,31.6,29.9,77,76,0.0,1,41.77,蒙阴,中国,山东省,临沂市,蒙阴县,54923,35.7333,117.95,286.5
54925,2022-08-08 01:00:00,985.5,1003.6,985.8,985.5,2.3,3.1,112,145,1.7,116,31.3,31.3,30.2,96,94,0.0,1,48.61,平邑,中国,山东省,临沂市,平邑县,54925,35.5,117.6833,161.2
54927,2022-08-08 01:00:00,994.8,1003.3,994.8,994.2,2.5,4.3,169,140,2.5,174,31.8,32.0,31.4,72,70,0.0,2,40.54,滕州,中国,山东省,枣庄市,滕州市,54927,35.1,117.2,74.9
54929,2022-08-08 01:00:00,985.3,1003.6,985.5,985.1,4.3,6.6,216,221,4.5,217,32.5,32.5,31.1,69,68,0.0,3,41.51,费县,中国,山东省,临沂市,费县,54929,35.2667,117.9667,121.2
54932,2022-08-08 01:00:00,982.7,1003.8,982.8,982.6,2.2,3.8,226,213,2.1,211,31.5,31.7,30.5,75,74,0.0,2,40.71,沂水,中国,山东省,临沂市,沂水县,54932,35.7667,118.65,186.7
54935,2022-08-08 01:00:00,990.3,1003.8,990.4,990.2,2.0,3.3,247,195,1.3,234,32.2,32.2,31.3,73,73,0.0,2,42.16,沂南,中国,山东省,临沂市,沂南县,54935,35.5333,118.4333,119.4
54936,2022-08-08 01:00:00,991.8,1003.8,991.9,991.8,2.9,4.8,222,222,2.2,223,32.8,32.8,31.6,76,74,0.0,2,45.47,莒县,中国,山东省,日照市,莒县,54936,35.5667,118.8333,107.4
54938,2022-08-08 01:00:00,989.9,1003.9,989.9,989.7,3.1,4.3,256,250,2.6,250,32.2,32.2,31.7,72,70,0.0,2,41.77,临沂,中国,山东省,临沂市,兰山区,54938,35.25,118.4167,124.0
54939,2022-08-08 01:00:00,991.3,1004.1,991.3,991.2,2.6,4.3,188,180,2.0,180,32.7,32.7,32.0,74,73,0.0,2,44.22,莒南,中国,山东省,临沂市,莒南县,54939,35.1667,118.8167,113.8
54940,2022-08-08 01:00:00,987.4,1004.1,987.4,987.3,1.4,2.5,192,159,1.1,182,32.0,32.0,31.3,80,77,0.0,1,44.37,五莲,中国,山东省,日照市,五莲县,54940,35.75,119.2,148.2
54943,2022-08-08 01:00:00,1003.5,1004.3,1003.5,1003.3,2.8,4.9,167,185,0.4,160,30.8,30.8,29.7,94,94,0.0,1,45.46,黄岛,中国,山东省,青岛市,黄岛区,54943,35.8333,120.0333,5.7
54945,2022-08-08 01:00:00,997.0,1004.4,997.0,996.8,2.2,3.3,247,254,2.1,219,32.7,32.8,31.8,72,72,0.0,2,43.36,日照,中国,山东省,日照市,东港区,54945,35.4667,119.55,64.4
58002,2022-08-08 01:00:00,997.0,1002.6,997.0,996.5,2.2,3.2,196,228,0.8,193,32.7,32.7,30.9,74,73,0.0,1,44.22,曹县,中国,山东省,菏泽市,曹县,58002,34.85,115.5833,49.0
58003,2022-08-08 01:00:00,997.7,1002.9,997.7,997.2,2.6,4.0,181,179,2.0,214,32.8,32.8,31.0,69,69,0.0,2,42.42,成武,中国,山东省,菏泽市,成武县,58003,34.95,115.8833,45.4
58011,2022-08-08 01:00:00,997.6,1002.9,997.6,997.2,3.5,5.4,184,226,2.4,182,32.0,32.0,30.5,70,69,0.0,2,40.41,单县,中国,山东省,菏泽市,单县,58011,34.8,116.0667,46.2
58020,2022-08-08 01:00:00,999.4,1003.5,999.4,999.0,2.5,4.5,210,178,1.3,202,32.1,32.4,31.5,70,66,0.0,1,40.7,微山,中国,山东省,济宁市,微山县,58020,34.7681,117.1403,35.5
58021,2022-08-08 01:00:00,994.4,1003.5,994.4,993.9,2.5,3.8,197,161,1.9,200,32.2,32.2,31.2,65,65,0.0,2,39.19,薛城,中国,山东省,枣庄市,薛城区,58021,34.7833,117.2833,80.5
58022,2022-08-08 01:00:00,994.4,1003.9,994.4,993.9,2.2,3.4,211,168,1.3,183,32.9,32.9,31.8,68,66,0.0,2,42.32,峄城,中国,山东省,枣庄市,峄城区,58022,34.7667,117.4833,83.4
58024,2022-08-08 01:00:00,995.0,1003.8,995.1,994.5,2.4,4.8,244,224,1.9,229,33.3,33.3,32.5,60,60,0.0,2,40.29,枣庄,中国,山东省,枣庄市,市中区,58024,34.8667,117.5833,77.7
58025,2022-08-08 01:00:00,1000.4,1003.8,1000.4,1000.1,2.6,4.6,177,190,2.1,181,32.6,32.6,31.6,73,70,0.0,2,43.46,台儿庄,中国,山东省,枣庄市,台儿庄区,58025,34.6,117.7167,29.3
58030,2022-08-08 01:00:00,998.6,1003.7,998.6,998.3,3.0,4.8,232,258,2.3,230,34.2,34.2,32.1,64,62,0.0,2,44.53,兰陵,中国,山东省,临沂市,兰陵县,58030,34.8833,118.0167,44.5
58032,2022-08-08 01:00:00,993.8,1004.0,993.9,993.7,2.5,4.0,203,225,2.2,212,33.7,33.7,32.2,64,64,0.0,2,43.02,临沭,中国,山东省,临沂市,临沭县,58032,34.95,118.65,90.1
53688,2022-08-08 01:00:00,994.0,1005.5,994.2,993.9,4.8,9.7,53,73,3.1,66,28.0,28.3,28.0,82,82,0.0,2,32.41,行唐,中国,河北省,石家庄市,行唐县,53688,38.4186,114.5464,100.3
53689,2022-08-08 01:00:00,1000.0,1004.9,1000.1,999.8,3.2,6.9,26,27,2.4,38,28.4,28.5,28.4,100,100,0.2,2,37.86,晋州,中国,河北省,石家庄市,晋州市,53689,38.0167,115.0667,42.4
53691,2022-08-08 01:00:00,997.3,1005.5,997.3,996.9,2.6,6.1,24,47,1.3,44,28.5,28.7,28.5,86,86,0.0,2,34.59,正定,中国,河北省,石家庄市,正定县,53691,38.15,114.5667,71.0
53695,2022-08-08 01:00:00,998.1,1005.6,998.1,997.8,6.0,9.4,54,54,5.7,55,28.0,28.4,28.0,83,82,0.2,3,32.57,新乐,中国,河北省,石家庄市,新乐市,53695,38.35,114.6833,70.8
53697,2022-08-08 01:00:00,998.7,1004.9,998.7,998.5,2.4,4.9,36,42,2.3,36,28.2,28.2,28.2,91,91,0.1,2,34.86,藁城,中国,河北省,石家庄市,藁城区,53697,38.0333,114.8333,53.5
53699,2022-08-08 01:00:00,999.6,1005.2,999.6,999.3,6.4,9.6,51,47,3.9,43,27.8,28.2,27.8,89,88,0.0,3,33.18,无极,中国,河北省,石家庄市,无极县,53699,38.1833,114.95,45.4
53773,2022-08-08 01:00:00,996.0,1003.5,996.0,995.1,5.5,8.5,5,16,5.6,10,28.7,29.2,28.7,92,91,0.0,3,36.76,临漳,中国,河北省,邯郸市,临漳县,53773,36.2986,114.595,65.5
53784,2022-08-08 01:00:00,999.7,1004.2,1000.1,999.7,3.4,6.1,34,26,3.2,26,28.3,28.4,28.3,93,92,0.1,3,35.68,赵县,中国,河北省,石家庄市,赵县,53784,37.75,114.7833,38.5
53785,2022-08-08 01:00:00,999.8,1003.9,1000.3,999.8,2.9,5.0,338,22,2.0,2,28.3,28.5,28.3,99,99,0.0,2,37.22,柏乡,中国,河北省,邢台市,柏乡县,53785,37.5167,114.6667,35.0
53789,2022-08-08 01:00:00,998.4,1004.5,998.6,998.4,1.9,4.6,96,40,1.6,35,28.4,28.7,28.4,95,91,2.4,1,36.53,栾城,中国,河北省,石家庄市,栾城区,53789,37.8833,114.6333,52.9
53790,2022-08-08 01:00:00,998.7,1003.9,998.9,998.6,3.3,5.1,17,327,2.4,7,27.6,28.1,27.6,98,95,13.2,2,34.51,高邑,中国,河北省,石家庄市,高邑县,53790,37.6347,114.6078,44.5
53794,2022-08-08 01:00:00,1000.5,1004.2,1000.9,1000.3,4.0,5.9,6,25,1.7,8,28.6,28.6,28.3,93,93,0.0,2,36.69,隆尧,中国,河北省,邢台市,隆尧县,53794,37.3903,114.7842,31.0
53796,2022-08-08 01:00:00,1000.5,1004.1,1000.9,1000.5,3.2,5.4,37,63,1.3,34,28.3,28.6,28.3,99,99,1.1,2,37.22,宁晋,中国,河北省,邢台市,宁晋县,53796,37.6178,114.8914,30.6
53799,2022-08-08 01:00:00,1001.2,1004.3,1001.5,1001.1,2.5,5.5,48,110,1.8,48,26.9,27.0,26.7,99,99,0.1,2,32.4,巨鹿,中国,河北省,邢台市,巨鹿县,53799,37.2378,114.9989,25.9
53883,2022-08-08 01:00:00,999.5,1003.8,999.8,999.1,2.1,4.4,20,358,1.7,10,27.8,27.8,27.1,100,100,0.0,2,35.66,任县,中国,河北省,邢台市,任县,53883,37.1333,114.7,36.5
53891,2022-08-08 01:00:00,998.8,1004.2,998.9,998.1,4.2,6.9,21,66,2.8,16,27.8,28.4,27.5,91,87,0.0,2,33.61,南和,中国,河北省,邢台市,南和县,53891,37.0167,114.6833,43.0
53893,2022-08-08 01:00:00,999.7,1004.1,1000.2,999.3,11.9,17.3,15,23,2.7,349,25.3,26.7,25.3,100,100,37.0,3,26.5,曲周,中国,河北省,邯郸市,曲周县,53893,36.7889,115.005,37.9
53896,2022-08-08 01:00:00,997.8,1003.8,997.8,996.6,2.4,6.6,9,7,2.5,8,29.1,29.3,29.1,95,95,0.0,2,39.04,魏县,中国,河北省,邯郸市,魏县,53896,36.3278,114.9494,51.6
53899,2022-08-08 01:00:00,998.8,1004.4,998.9,997.4,4.1,7.0,2,11,1.7,5,27.2,29.1,27.2,94,90,8.8,2,32.4,广平,中国,河北省,邯郸市,广平县,53899,36.4833,114.9667,48.5
53980,2022-08-08 01:00:00,998.5,1004.3,998.6,997.3,3.6,7.4,43,35,3.6,35,27.3,28.8,27.3,94,92,0.5,3,32.71,肥乡,中国,河北省,邯郸市,肥乡区,53980,36.55,114.8,50.2
53996,2022-08-08 01:00:00,997.4,1004.1,997.4,996.4,4.9,8.3,344,32,2.0,355,28.0,28.8,28.0,93,91,0.1,2,34.69,成安,中国,河北省,邯郸市,成安县,53996,36.45,114.65,57.9
54604,2022-08-08 01:00:00,1001.7,1005.4,1001.8,1001.3,4.7,11.0,39,47,3.2,52,28.0,28.3,28.0,80,80,0.0,3,32.1,安国,中国,河北省,保定市,安国市,54604,38.4047,115.2919,31.0
54606,2022-08-08 01:00:00,1002.9,1005.1,1002.9,1002.5,4.2,7.2,34,40,4.0,37,28.3,28.5,28.3,96,95,0.0,3,36.44,饶阳,中国,河北省,衡水市,饶阳县,54606,38.2231,115.7431,17.9
54608,2022-08-08 01:00:00,1001.9,1004.9,1001.9,1001.2,3.6,7.6,57,56,1.9,35,28.7,28.8,28.6,94,92,0.0,2,37.31,深州,中国,河北省,衡水市,深州市,54608,37.9903,115.5442,25.5
54609,2022-08-08 01:00:00,1002.7,1005.4,1002.7,1002.2,4.2,8.0,59,58,5.5,57,28.5,28.7,28.5,86,86,0.0,3,34.59,安平,中国,河北省,衡水市,安平县,54609,38.2306,115.5869,22.4
54614,2022-08-08 01:00:00,1004.2,1005.6,1004.2,1003.9,2.9,8.8,25,60,1.8,23,27.7,28.3,27.7,88,87,0.0,2,32.68,河间,中国,河北省,沧州市,河间市,54614,38.4197,116.0561,10.9
54616,2022-08-08 01:00:00,1004.9,1005.9,1004.9,1004.4,4.9,10.9,82,88,4.3,80,27.5,27.5,27.4,71,71,0.0,3,29.84,沧州,中国,河北省,沧州市,运河区,54616,38.35,116.85,8.0
54617,2022-08-08 01:00:00,1003.7,1005.3,1003.7,1003.1,5.6,9.5,92,81,4.7,88,28.5,28.6,28.3,85,85,0.0,3,34.34,献县,中国,河北省,沧州市,献县,54617,38.205,116.1706,13.3
54618,2022-08-08 01:00:00,1003.6,1005.2,1003.6,1003.3,6.2,12.3,72,70,5.5,71,27.9,27.9,27.2,84,84,0.0,4,32.46,泊头,中国,河北省,沧州市,泊头市,54618,38.0833,116.55,13.2
54620,2022-08-08 01:00:00,1003.1,1005.6,1003.1,1002.8,4.7,9.4,53,50,3.9,54,27.9,28.2,27.8,81,81,0.0,3,32.0,蠡县,中国,河北省,保定市,蠡县,54620,38.4833,115.5667,18.5
54621,2022-08-08 01:00:00,1000.8,1005.3,1000.8,1000.4,2.9,6.3,58,72,2.4,57,28.1,28.2,28.1,90,90,0.0,2,34.31,深泽,中国,河北省,石家庄市,深泽县,54621,38.1833,115.1833,38.1
54624,2022-08-08 01:00:00,1005.4,1006.0,1005.6,1004.9,8.2,13.7,75,70,9.4,73,27.8,27.8,27.5,63,63,0.0,5,29.48,黄骅,中国,河北省,沧州市,黄骅市,54624,38.4081,117.3214,4.5
54626,2022-08-08 01:00:00,1004.0,1005.7,1004.0,1003.8,3.8,8.8,41,48,4.6,38,28.0,28.5,28.0,83,83,0.0,2,32.57,肃宁,中国,河北省,沧州市,肃宁县,54626,38.4167,115.8167,13.9
54627,2022-08-08 01:00:00,1004.3,1005.4,1004.3,1003.7,7.5,12.4,72,78,7.1,76,26.3,26.7,26.3,82,82,0.0,4,28.37,盐山,中国,河北省,沧州市,盐山县,54627,38.0333,117.2333,8.2
54628,2022-08-08 01:00:00,1004.9,1005.6,1004.9,1004.0,9.6,16.6,76,76,9.5,74,26.3,26.8,26.2,78,78,0.1,5,28.15,海兴,中国,河北省,沧州市,海兴县,54628,38.0839,117.4136,5.0
54631,2022-08-08 01:00:00,1000.5,1004.2,1000.7,1000.2,1.8,4.2,5,999017,0.0,355,26.6,26.7,26.5,96,96,0.3,1,30.1,广宗,中国,河北省,邢台市,广宗县,54631,37.0939,115.1314,31.4
54632,2022-08-08 01:00:00,1000.1,1004.1,1000.5,999.7,1.4,2.9,96,93,1.2,122,27.0,27.0,26.9,99,99,0.0,1,32.72,平乡,中国,河北省,邢台市,平乡县,54632,37.0667,115.0333,34.0
54633,2022-08-08 01:00:00,1001.0,1004.1,1001.1,1000.8,3.1,5.4,20,5,2.3,16,28.3,28.4,28.2,100,100,0.1,2,37.49,新河,中国,河北省,邢台市,新河县,54633,37.5081,115.2706,26.1
54640,2022-08-08 01:00:00,1000.0,1004.3,1000.3,999.3,5.4,7.9,37,92,2.4,27,26.8,26.8,26.5,95,95,3.5,2,31.39,鸡泽,中国,河北省,邯郸市,鸡泽县,54640,36.8903,114.8728,36.6
54644,2022-08-08 01:00:00,1004.2,1005.5,1004.2,1003.7,6.7,10.7,72,69,5.8,69,27.0,27.0,26.7,84,84,0.0,4,30.12,孟村,中国,河北省,沧州市,孟村回族自治县,54644,38.0555,117.1239,10.5
54700,2022-08-08 01:00:00,1002.9,1004.9,1002.9,1002.4,5.4,10.2,65,63,4.2,85,28.1,28.6,28.1,87,85,0.0,3,33.63,武强,中国,河北省,衡水市,武强县,54700,38.0333,115.9333,16.2
54701,2022-08-08 01:00:00,1000.7,1004.9,1000.7,1000.3,1.6,4.5,53,64,1.7,34,28.7,28.8,28.6,90,89,0.3,1,36.23,辛集,中国,河北省,石家庄市,辛集市,54701,37.9333,115.2,35.9
54702,2022-08-08 01:00:00,1001.7,1004.2,1001.9,1001.5,3.4,7.4,46,64,3.0,54,29.4,29.4,29.1,86,86,0.0,2,37.43,衡水,中国,河北省,衡水市,桃城区,54702,37.7333,115.7,20.7
54703,2022-08-08 01:00:00,1002.2,1004.7,1002.2,1001.6,5.2,8.3,48,34,4.6,43,28.6,28.8,28.6,87,87,0.0,3,35.14,武邑,中国,河北省,衡水市,武邑县,54703,37.7858,115.9044,20.7
54704,2022-08-08 01:00:00,1001.2,1004.1,1001.4,1000.8,2.3,3.6,42,29,1.8,83,28.1,28.1,27.7,97,97,0.0,2,35.99,冀州,中国,河北省,衡水市,冀州区,54704,37.5122,115.5614,24.8
54705,2022-08-08 01:00:00,1001.2,1004.5,1001.2,1000.9,2.8,3.7,117,272,0.5,101,26.9,26.9,26.6,97,96,0.0,1,32.04,南宫,中国,河北省,邢台市,南宫市,54705,37.3667,115.3833,27.4
54706,2022-08-08 01:00:00,1000.5,1003.9,1001.2,1000.2,4.3,8.1,329,12,1.5,8,26.1,28.4,26.1,97,94,26.8,1,28.61,清河,中国,河北省,邢台市,清河县,54706,37.0833,115.6667,31.5
54707,2022-08-08 01:00:00,1001.2,1004.4,1001.2,1000.4,3.9,6.2,60,67,4.0,39,27.2,27.2,25.8,98,97,9.6,2,33.18,故城,中国,河北省,衡水市,故城县,54707,37.35,115.9833,27.4
54708,2022-08-08 01:00:00,1001.1,1003.9,1001.3,1000.8,2.6,3.6,88,75,1.3,48,27.6,27.6,27.0,100,100,0.2,1,34.95,枣强,中国,河北省,衡水市,枣强县,54708,37.5,115.7333,23.6
54710,2022-08-08 01:00:00,1002.8,1004.7,1002.8,1002.3,4.0,7.7,71,62,3.9,67,28.0,28.7,28.0,100,98,0.0,3,36.38,阜城,中国,河北省,衡水市,阜城县,54710,37.8447,116.1506,15.8
54711,2022-08-08 01:00:00,1002.5,1004.3,1002.5,1001.8,5.4,9.2,73,72,4.6,77,28.0,28.7,28.0,100,100,0.0,3,36.38,景县,中国,河北省,衡水市,景县,54711,37.6686,116.265,15.0
54713,2022-08-08 01:00:00,1003.0,1004.8,1003.0,1002.7,4.2,8.0,58,74,2.9,87,27.4,27.4,27.2,94,93,0.6,3,33.01,东光,中国,河北省,沧州市,东光县,54713,37.8833,116.5333,14.4
54717,2022-08-08 01:00:00,1002.5,1004.6,1002.5,1001.8,4.1,6.9,68,79,3.7,68,27.7,27.7,27.6,87,87,0.0,3,32.47,吴桥,中国,河北省,沧州市,吴桥县,54717,37.6333,116.4,17.1
54719,2022-08-08 01:00:00,1003.7,1005.1,1003.7,1003.3,5.7,9.7,74,75,5.3,68,27.1,27.1,26.7,93,93,0.0,4,31.92,南皮,中国,河北省,沧州市,南皮县,54719,38.0119,116.6822,10.8
54800,2022-08-08 01:00:00,1000.4,1004.3,1000.5,1000.0,3.4,5.3,23,17,2.5,2,26.3,27.1,26.1,100,99,16.5,2,29.41,威县,中国,河北省,邢台市,威县,54800,37.0,115.25,33.3
54801,2022-08-08 01:00:00,999.9,1004.0,999.9,999.1,5.1,9.2,9,5,3.0,341,27.2,29.3,27.2,99,99,0.0,3,33.38,临西,中国,河北省,邢台市,临西县,54801,36.85,115.4833,35.3
54804,2022-08-08 01:00:00,998.7,1004.0,998.7,997.3,1.1,2.1,311,308,1.5,318,28.9,28.9,28.9,95,95,0.0,1,38.31,大名,中国,河北省,邯郸市,大名县,54804,36.3042,115.1814,45.3
54809,2022-08-08 01:00:00,999.6,1004.4,1000.2,997.9,5.5,10.8,326,327,6.4,315,27.0,29.3,27.0,93,89,15.4,3,31.62,馆陶,中国,河北省,邯郸市,馆陶县,54809,36.55,115.2833,41.3
54820,2022-08-08 01:00:00,1000.1,1004.7,1000.1,998.8,5.9,9.4,348,306,2.7,344,26.5,28.9,26.5,100,94,13.2,2,30.08,邱县,中国,河北省,邯郸市,邱县,54820,36.81,115.2078,39.0
53992,2022-08-08 01:00:00,996.1,1002.8,996.1,995.3,3.1,4.1,349,25,2.6,349,29.9,30.2,29.9,88,86,0.0,2,39.75,浚县,中国,河南省,鹤壁市,浚县,53992,35.6589,114.5183,58.2
53993,2022-08-08 01:00:00,997.1,1003.0,997.1,996.3,1.8,2.8,37,2,1.3,30,30.2,30.3,30.2,87,84,0.0,1,40.49,内黄,中国,河南省,安阳市,内黄县,53993,35.9425,114.91,51.6
53998,2022-08-08 01:00:00,995.1,1002.1,995.1,994.6,1.6,3.5,233,245,1.7,181,32.1,32.5,32.1,82,79,0.0,2,45.62,长垣,中国,河南省,新乡市,长垣县,53998,35.1933,114.6547,61.6
54817,2022-08-08 01:00:00,997.7,1002.7,998.0,997.5,1.5,3.0,133,98,0.8,155,31.2,32.5,31.2,91,78,0.0,1,45.93,台前,中国,河南省,濮阳市,台前县,54817,35.9842,115.8619,42.1
54900,2022-08-08 01:00:00,996.9,1003.1,996.9,996.0,1.1,1.9,174,999017,0.1,135,30.5,30.6,30.2,85,83,0.0,0,40.89,濮阳,中国,河南省,濮阳市,濮阳县,54900,35.6967,115.0317,53.7
54901,2022-08-08 01:00:00,997.5,1002.9,997.5,996.8,0.0,0.0,999017,999017,0.0,999017,29.0,29.0,28.9,94,93,0.0,0,38.38,南乐,中国,河南省,濮阳市,南乐县,54901,36.0581,115.2414,46.6
54902,2022-08-08 01:00:00,997.1,1002.8,997.2,996.6,1.1,1.5,50,999017,0.0,42,29.4,29.5,29.4,93,92,0.0,0,39.54,清丰,中国,河南省,濮阳市,清丰县,54902,35.9419,115.1428,49.3
54903,2022-08-08 01:00:00,997.6,1002.9,997.6,997.0,1.2,1.6,177,239,0.6,156,30.1,30.1,30.1,92,84,0.0,1,41.84,范县,中国,河南省,濮阳市,范县,54903,35.8492,115.4761,46.0
57093,2022-08-08 01:00:00,993.9,1001.9,993.9,993.6,3.8,5.7,186,178,2.7,181,32.7,32.7,31.5,71,70,0.0,2,42.94,兰考,中国,河南省,开封市,兰考县,57093,34.8611,114.7989,70.8
57096,2022-08-08 01:00:00,995.1,1001.9,995.2,994.9,2.3,3.8,211,165,2.5,194,33.1,33.1,31.1,74,72,0.0,2,45.6,杞县,中国,河南省,开封市,杞县,57096,34.5406,114.7819,59.7
57099,2022-08-08 01:00:00,996.2,1002.2,996.4,996.2,2.3,6.1,205,202,3.3,192,33.5,33.6,31.8,61,61,0.0,2,41.21,太康,中国,河南省,周口市,太康县,57099,34.0744,114.8497,52.6
58001,2022-08-08 01:00:00,995.6,1002.0,995.6,995.4,3.0,4.5,183,184,2.7,200,32.7,32.7,31.4,70,70,0.0,2,42.53,睢县,中国,河南省,商丘市,睢县,58001,34.4769,115.0325,56.1
58004,2022-08-08 01:00:00,995.4,1002.4,995.4,995.0,2.2,4.1,169,222,1.7,187,32.6,32.7,31.3,77,76,0.0,2,45.21,民权,中国,河南省,商丘市,民权县,58004,34.6194,115.1944,61.6
58005,2022-08-08 01:00:00,996.5,1002.3,996.8,996.4,3.2,4.5,221,215,2.7,204,32.2,32.2,30.5,75,73,0.0,2,42.97,商丘,中国,河南省,商丘市,梁园区,58005,34.4372,115.5353,50.8
58006,2022-08-08 01:00:00,997.3,1002.7,997.5,997.0,2.7,4.4,172,179,2.1,181,31.2,31.2,30.1,77,75,0.0,2,40.47,虞城,中国,河南省,商丘市,虞城县,58006,34.3903,115.8794,46.3
58007,2022-08-08 01:00:00,997.2,1002.5,997.3,996.8,2.5,4.3,191,198,2.4,203,32.7,32.7,30.9,70,70,0.0,2,42.53,柘城,中国,河南省,商丘市,柘城县,58007,34.0983,115.3592,45.7
58008,2022-08-08 01:00:00,995.8,1002.2,995.9,995.6,2.6,4.5,177,223,2.7,182,32.8,32.9,31.9,71,71,0.0,2,43.26,宁陵,中国,河南省,商丘市,宁陵县,58008,34.4867,115.3156,55.8
58017,2022-08-08 01:00:00,998.1,1003.0,998.2,997.6,2.7,5.1,200,225,3.5,219,32.1,32.1,31.4,67,66,0.0,2,39.62,夏邑,中国,河南省,商丘市,夏邑县,58017,34.2831,116.1508,42.6
