Station_Id_C,dt,PRS,PRS_Sea,PRS_Max,PRS_Min,WIN_S_Max,WIN_S_Inst_Max,WIN_D_INST_Max,WIN_D_Avg_2mi,WIN_S_Avg_2mi,WIN_D_S_Max,TEM,TEM_Max,TEM_Min,RHU,RHU_Min,PRE_1h,windpower,tigan,Station_Name,Country,Province,City,Cnty,Station_Id_d,Lat,Lon,Alti
58015,2022-08-08 17:00:00,998.4,1003.2,998.6,998.4,1.7,3.1,158,153,2.0,146,31.5,31.9,31.4,86,84,0.0,2,45.03,砀山,中国,安徽省,宿州市,砀山县,58015,34.4389,116.3397,42.1
58016,2022-08-08 17:00:00,999.7,1003.7,999.9,999.7,1.2,1.7,135,125,1.0,133,30.9,30.9,30.6,81,80,0.0,1,40.89,萧县,中国,安徽省,宿州市,萧县,58016,34.1803,116.9628,34.9
58116,2022-08-08 17:00:00,999.9,1003.7,1000.0,999.8,1.5,2.0,129,121,0.9,123,30.4,30.9,30.4,92,86,0.0,1,43.01,淮北,中国,安徽省,淮北市,杜集区,58116,34.0333,116.8689,32.9
58012,2022-08-08 17:00:00,998.9,1003.7,999.2,998.9,0.4,0.7,147,999017,0.0,153,29.4,29.8,29.4,100,100,0.0,0,41.82,丰县,中国,江苏省,徐州市,丰县,58012,34.6719,116.6561,42.0
58013,2022-08-08 17:00:00,999.6,1003.8,999.9,999.6,1.5,2.6,189,174,1.4,178,32.4,32.4,31.9,74,74,0.0,1,43.22,沛县,中国,江苏省,徐州市,沛县,58013,34.7533,116.9058,36.5
58026,2022-08-08 17:00:00,1001.1,1004.1,1001.4,1001.1,0.5,0.9,126,119,0.5,119,30.7,31.0,30.7,95,94,0.0,1,45.43,邳州,中国,江苏省,徐州市,邳州市,58026,34.3942,118.0189,25.7
58027,2022-08-08 17:00:00,999.1,1003.8,999.4,999.1,2.4,4.4,137,163,0.8,171,32.7,33.3,32.7,70,66,0.0,1,42.53,徐州,中国,江苏省,徐州市,市辖区,58027,34.2872,117.1586,41.2
58035,2022-08-08 17:00:00,1000.9,1004.3,1001.2,1000.9,1.2,2.3,153,999017,0.2,137,30.7,31.1,30.7,87,84,0.0,1,42.33,新沂,中国,江苏省,徐州市,新沂市,58035,34.3319,118.3536,29.3
58036,2022-08-08 17:00:00,1000.5,1004.3,1000.9,1000.5,1.8,3.5,164,162,1.5,153,31.1,31.5,31.1,82,79,0.0,1,41.95,东海,中国,江苏省,连云港市,东海县,58036,34.5425,118.7136,32.9
58038,2022-08-08 17:00:00,1003.3,1004.6,1003.5,1003.2,1.2,2.1,162,137,0.7,129,31.2,31.6,31.2,80,78,0.0,1,41.55,沭阳,中国,江苏省,宿迁市,沭阳县,58038,34.0911,118.7836,10.4
58040,2022-08-08 17:00:00,1003.4,1004.1,1003.9,1003.4,1.4,2.6,194,185,0.9,193,32.4,32.6,32.4,80,78,0.0,1,45.85,赣榆,中国,江苏省,连云港市,赣榆区,58040,34.8564,119.1269,5.3
58041,2022-08-08 17:00:00,1001.3,1004.4,1001.7,1001.3,3.0,5.8,184,192,2.9,190,32.9,33.0,32.2,65,64,0.0,2,41.12,西连岛,中国,江苏省,连云港市,连云区,58041,34.7778,119.4425,26.2
58044,2022-08-08 17:00:00,1003.7,1004.4,1004.1,1003.7,1.5,2.2,78,66,1.1,57,31.1,31.2,31.1,85,85,0.0,1,43.09,连云港,中国,江苏省,连云港市,市辖区,58044,34.5489,119.2347,4.7
58045,2022-08-08 17:00:00,1004.0,1004.7,1004.4,1004.0,1.7,3.7,156,154,1.5,151,31.5,31.8,31.5,80,79,0.0,1,42.59,响水,中国,江苏省,盐城市,响水县,58045,34.1142,119.3606,4.4
58047,2022-08-08 17:00:00,1003.8,1004.5,1004.1,1003.8,1.1,1.9,99,100,1.0,103,31.6,32.1,31.6,80,80,0.0,1,42.94,灌云,中国,江苏省,连云港市,灌云县,58047,34.2575,119.2361,4.8
58048,2022-08-08 17:00:00,1003.5,1004.5,1003.9,1003.5,2.8,4.1,152,153,2.6,149,31.8,32.1,31.8,87,85,0.0,2,46.68,灌南,中国,江苏省,连云港市,灌南县,58048,34.0639,119.2928,8.0
58049,2022-08-08 17:00:00,1004.5,1005.1,1004.8,1004.5,1.8,4.6,198,178,1.4,177,31.7,32.1,31.6,74,71,0.0,2,40.97,滨海,中国,江苏省,盐城市,滨海县,58049,34.0164,119.8031,4.1
54709,2022-08-08 17:00:00,1003.2,1006.2,1003.2,1002.8,2.9,5.0,11,360,3.9,20,22.6,22.9,22.6,100,100,0.1,2,23.53,武城,中国,山东省,德州市,武城县,54709,37.2333,116.0667,24.8
54712,2022-08-08 17:00:00,1003.2,1005.5,1003.7,1003.2,3.8,6.2,14,23,2.9,14,22.6,23.2,22.6,100,100,5.8,3,23.53,临邑,中国,山东省,德州市,临邑县,54712,37.2,116.8167,18.5
54714,2022-08-08 17:00:00,1002.8,1005.9,1003.2,1002.8,3.9,6.8,34,46,3.9,43,22.1,22.6,22.1,100,100,0.5,3,22.98,德州,中国,山东省,德州市,德城区,54714,37.35,116.3333,25.4
54715,2022-08-08 17:00:00,1003.7,1005.9,1004.1,1003.7,3.8,6.5,36,44,3.0,41,22.0,22.4,22.0,96,95,2.1,2,22.76,陵城,中国,山东省,临沂市,兰陵县,54715,37.3167,116.5167,17.6
54716,2022-08-08 17:00:00,1004.3,1006.4,1005.0,1004.3,3.1,4.2,11,47,1.8,34,21.7,21.7,21.4,97,97,8.3,1,22.46,宁津,中国,山东省,德州市,宁津县,54716,37.6667,116.8,17.3
54722,2022-08-08 17:00:00,1005.8,1006.7,1006.8,1005.1,5.1,10.4,63,56,3.2,59,21.7,22.6,21.7,100,100,25.2,2,22.54,无棣,中国,山东省,滨州市,无棣县,54722,37.75,117.6333,6.8
54723,2022-08-08 17:00:00,1005.3,1006.6,1007.1,1004.8,4.5,8.6,68,63,2.6,169,21.9,22.5,21.8,95,91,27.9,3,22.63,阳信,中国,山东省,滨州市,阳信县,54723,37.65,117.5667,10.1
54724,2022-08-08 17:00:00,1004.2,1006.0,1004.4,1004.0,2.7,5.2,359,2,3.3,17,22.5,23.2,22.5,96,96,2.7,2,23.31,商河,中国,山东省,济南市,商河县,54724,37.3167,117.1333,14.8
54725,2022-08-08 17:00:00,1004.6,1006.1,1006.3,1004.6,3.6,7.7,241,47,2.5,199,22.0,23.2,22.0,100,97,12.7,2,22.87,惠民,中国,山东省,滨州市,惠民县,54725,37.5,117.5333,11.7
54726,2022-08-08 17:00:00,1005.2,1006.7,1006.5,1004.9,3.1,6.7,53,22,2.1,65,21.9,22.2,21.9,100,100,18.9,2,22.76,乐陵,中国,山东省,德州市,乐陵市,54726,37.7,117.1833,11.5
54727,2022-08-08 17:00:00,974.7,1004.4,975.5,974.7,3.1,4.0,152,136,2.0,150,24.8,25.2,24.7,91,90,0.0,2,25.71,章丘,中国,山东省,济南市,章丘区,54727,36.65,117.5167,263.0
54728,2022-08-08 17:00:00,1005.3,1006.7,1005.8,1004.7,4.3,8.9,56,11,2.3,71,21.5,22.2,21.5,99,98,9.4,2,22.29,庆云,中国,山东省,德州市,庆云县,54728,37.7667,117.35,10.5
54729,2022-08-08 17:00:00,1004.5,1006.0,1004.5,1003.9,2.3,4.0,353,349,3.0,351,24.1,24.1,24.0,93,90,0.1,2,24.99,高青,中国,山东省,淄博市,高青县,54729,37.1667,117.8667,11.5
54734,2022-08-08 17:00:00,1003.9,1006.1,1003.9,1003.0,2.8,4.5,84,336,2.0,59,24.1,24.1,23.9,92,91,0.0,2,24.97,滨州,中国,山东省,滨州市,滨城区,54734,37.35,118.0333,17.8
54736,2022-08-08 17:00:00,1004.5,1005.3,1005.2,1004.5,2.1,5.2,71,75,2.4,44,25.6,25.6,25.5,90,90,0.0,2,26.57,东营,中国,山东省,东营市,东营区,54736,37.4333,118.6667,6.0
54744,2022-08-08 17:00:00,1004.6,1005.7,1005.3,1004.6,2.1,4.4,50,61,2.2,69,24.3,24.3,24.1,91,90,0.0,2,25.16,垦利,中国,山东省,东营市,垦利区,54744,37.5833,118.55,8.5
54749,2022-08-08 17:00:00,999.5,1005.1,999.8,999.3,1.9,3.2,115,94,1.2,98,27.3,27.5,27.3,86,84,1.9,1,31.18,莱州,中国,山东省,烟台市,莱州市,54749,37.1833,119.95,48.4
54751,2022-08-08 17:00:00,1001.8,1006.5,1002.1,1001.8,2.4,4.1,97,90,2.8,69,25.0,25.8,25.0,100,99,8.1,2,26.17,长岛,中国,山东省,烟台市,长岛县,54751,37.9392,120.7256,39.7
54752,2022-08-08 17:00:00,999.4,1006.5,999.5,999.3,1.9,3.5,60,63,2.6,92,25.5,25.8,25.5,94,93,1.1,2,26.56,蓬莱,中国,山东省,烟台市,蓬莱市,54752,37.8,120.7667,60.7
54753,2022-08-08 17:00:00,1005.4,1006.1,1005.9,1005.4,2.2,4.4,68,70,2.3,59,25.2,25.4,25.2,100,100,5.1,2,26.39,龙口,中国,山东省,烟台市,龙口市,54753,37.6333,120.3333,4.8
54755,2022-08-08 17:00:00,992.5,1006.1,992.8,992.5,1.0,1.8,71,30,1.6,39,25.7,25.7,25.6,95,94,0.1,1,27.38,招远,中国,山东省,烟台市,招远市,54755,37.3283,120.3869,117.8
54759,2022-08-08 17:00:00,982.5,1006.0,982.7,982.4,3.0,4.6,27,29,3.4,36,24.6,24.6,24.5,100,100,0.0,2,25.73,栖霞,中国,山东省,烟台市,栖霞市,54759,37.3247,120.8519,205.5
54764,2022-08-08 17:00:00,999.9,1006.2,1000.1,999.9,1.4,1.7,87,79,0.4,145,25.3,25.3,25.2,94,94,0.0,1,26.34,福山,中国,山东省,烟台市,福山区,54764,37.4833,121.2333,53.9
54765,2022-08-08 17:00:00,996.9,1006.4,997.1,996.8,1.9,2.5,51,29,1.7,48,24.9,24.9,24.8,97,97,0.2,2,25.98,烟台,中国,山东省,烟台市,莱山区,54765,37.4833,121.4333,82.0
54776,2022-08-08 17:00:00,1000.7,1006.3,1001.0,1000.7,1.2,1.7,155,156,1.5,108,24.9,25.3,24.9,98,98,0.5,1,26.0,成山头,中国,山东省,威海市,荣成市,54776,37.4,122.7,47.7
54777,2022-08-08 17:00:00,992.7,1006.3,993.2,992.7,2.1,3.0,83,86,2.1,95,25.4,25.7,25.4,94,94,0.0,2,26.45,文登,中国,山东省,威海市,文登区,54777,37.2,122.0667,118.0
54802,2022-08-08 17:00:00,1001.6,1005.6,1001.8,1001.5,4.1,6.4,25,23,1.9,27,22.7,23.4,22.7,97,97,0.2,2,23.56,临清,中国,山东省,聊城市,临清市,54802,36.8167,115.7333,34.0
54806,2022-08-08 17:00:00,1000.9,1005.2,1001.2,1000.8,2.2,3.9,313,315,2.8,311,25.2,25.3,25.0,98,97,0.2,2,26.33,聊城,中国,山东省,聊城市,东昌府区,54806,36.3494,115.9761,36.1
54807,2022-08-08 17:00:00,1000.4,1005.3,1000.5,1000.4,4.1,6.1,340,346,5.2,323,24.2,25.6,24.2,100,100,0.1,3,25.29,阳谷,中国,山东省,聊城市,阳谷县,54807,36.15,115.7667,41.2
54808,2022-08-08 17:00:00,1001.1,1005.7,1001.3,1001.1,4.4,6.6,326,335,4.7,335,23.2,23.9,23.2,98,98,0.0,3,24.13,莘县,中国,山东省,聊城市,莘县,54808,36.2156,115.6267,38.7
54812,2022-08-08 17:00:00,1001.5,1004.5,1002.0,1001.5,1.6,2.5,34,15,1.0,27,24.8,25.4,24.8,100,100,0.5,1,25.95,齐河,中国,山东省,德州市,齐河县,54812,36.7333,116.7167,24.7
54814,2022-08-08 17:00:00,1001.4,1004.9,1001.6,1001.4,1.7,2.5,31,348,1.0,3,25.1,25.2,25.1,99,99,2.1,1,26.25,茌平,中国,山东省,聊城市,茌平县,54814,36.5333,116.25,29.7
54815,2022-08-08 17:00:00,1001.1,1004.8,1001.3,1001.0,1.5,2.5,326,312,1.8,319,25.2,25.2,25.1,99,99,1.2,1,26.36,东阿,中国,山东省,聊城市,东阿县,54815,36.3833,116.2667,31.4
54816,2022-08-08 17:00:00,993.2,1004.6,993.5,993.0,1.5,2.4,163,165,1.5,157,25.2,25.2,25.0,95,94,2.4,1,26.26,长清,中国,山东省,济南市,长清区,54816,36.5167,116.8,98.9
54818,2022-08-08 17:00:00,995.5,1004.7,995.7,995.5,2.0,3.0,343,351,1.9,350,25.9,26.1,25.9,97,96,1.6,2,28.0,平阴,中国,山东省,济南市,平阴县,54818,36.25,116.4167,79.9
54819,2022-08-08 17:00:00,991.5,1004.5,991.6,991.5,0.9,1.7,315,999017,0.2,289,24.9,24.9,24.7,97,97,1.1,1,25.98,肥城,中国,山东省,泰安市,肥城市,54819,36.1833,116.8,113.6
54821,2022-08-08 17:00:00,1002.4,1004.9,1002.8,1002.4,2.6,3.8,71,61,1.9,67,24.2,24.3,24.2,93,93,0.0,2,25.1,济阳,中国,山东省,济南市,济阳县,54821,37.0,117.2,20.4
54822,2022-08-08 17:00:00,999.2,1004.8,1000.0,999.2,1.1,2.0,38,71,0.8,16,25.7,25.9,25.7,100,100,0.0,1,27.45,邹平,中国,山东省,滨州市,邹平县,54822,36.8667,117.7333,47.4
54823,2022-08-08 17:00:00,985.4,1004.9,985.8,985.3,2.4,3.7,134,96,0.9,121,25.4,25.9,25.4,94,92,8.3,2,26.45,济南,中国,山东省,济南市,市中区,54823,36.6019,117.0081,170.3
54824,2022-08-08 17:00:00,993.9,1004.8,994.5,993.9,0.9,1.9,166,253,0.8,253,26.2,26.4,26.2,94,92,0.0,1,28.76,淄川,中国,山东省,淄博市,淄川区,54824,36.6333,117.95,95.0
54825,2022-08-08 17:00:00,982.1,1003.7,982.8,982.1,1.1,2.2,30,47,0.9,19,25.5,25.6,25.5,81,81,0.0,1,26.22,博山,中国,山东省,淄博市,博山区,54825,36.5167,117.85,189.7
54826,2022-08-08 17:00:00,844.4,1006.7,844.6,844.3,8.1,15.9,213,187,3.5,220,21.5,21.8,21.4,100,99,0.4,4,22.32,泰山,中国,山东省,泰安市,泰山区,54826,36.25,117.1,1533.7
54827,2022-08-08 17:00:00,990.2,1004.9,990.5,990.2,1.4,2.5,74,103,1.3,97,25.3,25.3,25.1,96,96,0.2,1,26.39,泰安,中国,山东省,泰安市,泰山区,54827,36.1667,117.15,128.6
54828,2022-08-08 17:00:00,978.6,1004.5,979.1,978.6,2.2,3.5,82,18,1.8,78,25.1,25.2,24.9,91,91,0.0,2,26.04,莱芜,中国,山东省,莱芜市, ,54828,36.2333,117.6833,229.3
54829,2022-08-08 17:00:00,995.1,1005.0,995.7,995.1,1.4,2.4,14,17,1.9,13,25.8,25.9,25.8,94,93,0.0,1,27.63,周村,中国,山东省,淄博市,周村区,54829,36.7667,117.8667,85.7
54830,2022-08-08 17:00:00,1001.0,1005.1,1001.3,1001.0,2.0,3.4,352,352,1.4,358,25.7,26.6,25.7,92,89,0.0,1,27.33,淄博,中国,山东省,淄博市,张店区,54830,36.8167,117.9333,34.4
54831,2022-08-08 17:00:00,993.0,1004.8,993.4,992.8,1.2,1.8,270,284,1.0,161,26.5,26.5,26.3,90,90,0.0,1,29.35,青州,中国,山东省,潍坊市,青州市,54831,36.65,118.5,102.5
54832,2022-08-08 17:00:00,1002.0,1004.8,1002.8,1002.0,1.1,2.4,96,93,1.1,81,26.8,26.8,26.8,94,93,0.0,1,31.22,寿光,中国,山东省,潍坊市,寿光市,54832,36.8631,118.7953,23.4
54833,2022-08-08 17:00:00,1003.4,1005.3,1003.8,1003.3,0.0,2.0,82,999017,0.0,999017,25.6,25.6,25.5,98,96,0.0,0,27.13,桓台,中国,山东省,淄博市,桓台县,54833,36.9667,118.0833,15.1
54834,2022-08-08 17:00:00,999.5,1004.9,999.9,999.4,1.7,2.7,83,9,0.8,80,26.0,26.1,26.0,92,92,0.0,1,28.11,临淄,中国,山东省,淄博市,临淄区,54834,36.8667,118.2833,46.3
54835,2022-08-08 17:00:00,988.1,1005.2,988.7,988.1,1.1,1.5,301,297,1.2,298,26.3,26.3,26.2,91,91,0.0,1,28.87,临朐,中国,山东省,潍坊市,临朐县,54835,36.4733,118.5606,149.5
54836,2022-08-08 17:00:00,970.8,1005.0,971.6,970.8,2.5,4.1,335,88,0.8,333,26.0,26.1,25.9,94,93,0.0,1,28.19,沂源,中国,山东省,淄博市,沂源县,54836,36.1833,118.1667,305.1
54837,2022-08-08 17:00:00,995.5,1004.6,996.5,995.5,1.3,1.9,31,341,1.3,57,26.6,26.8,26.6,97,96,0.0,1,30.18,昌乐,中国,山东省,潍坊市,昌乐县,54837,36.6797,118.8361,78.8
54841,2022-08-08 17:00:00,1002.4,1005.2,1002.8,1002.4,1.4,1.9,89,36,0.7,100,27.1,27.1,27.0,98,98,0.0,1,32.85,昌邑,中国,山东省,潍坊市,昌邑市,54841,36.8617,119.4181,23.5
54842,2022-08-08 17:00:00,997.9,1005.1,998.2,997.9,3.3,4.8,73,78,2.9,77,27.1,27.3,27.1,93,92,0.0,2,31.92,平度,中国,山东省,青岛市,平度市,54842,36.7833,120.0,62.2
54843,2022-08-08 17:00:00,1002.2,1004.9,1003.1,1002.2,1.4,1.8,139,99,0.8,152,27.1,27.4,27.1,95,94,0.0,1,32.29,潍坊,中国,山东省,潍坊市,寒亭区,54843,36.75,119.2,22.2
54844,2022-08-08 17:00:00,997.5,1004.8,998.3,997.5,1.9,3.3,270,999017,0.2,266,26.7,26.7,26.3,99,97,0.6,1,31.76,安丘,中国,山东省,潍坊市,安丘市,54844,36.4167,119.1833,62.7
54846,2022-08-08 17:00:00,998.9,1004.9,999.5,998.8,1.6,2.4,31,47,1.2,9,27.2,27.3,27.2,93,93,0.0,1,32.21,高密,中国,山东省,潍坊市,高密市,54846,36.3853,119.7361,51.5
54848,2022-08-08 17:00:00,992.9,1005.3,992.9,992.3,1.2,4.7,274,269,3.0,262,27.1,27.2,27.1,97,96,1.1,1,32.66,诸城,中国,山东省,潍坊市,诸城市,54848,35.9633,119.4847,109.0
54849,2022-08-08 17:00:00,995.4,1005.0,995.9,995.2,4.4,7.9,347,120,3.6,329,26.7,27.2,26.6,98,95,6.8,2,31.6,胶州,中国,山东省,青岛市,胶州市,54849,36.2167,120.0333,84.4
54851,2022-08-08 17:00:00,996.6,1005.5,997.3,996.6,1.9,3.8,113,104,1.5,88,26.1,26.4,26.1,97,95,0.1,2,28.61,莱西,中国,山东省,青岛市,莱西市,54851,36.9,120.5667,76.9
54852,2022-08-08 17:00:00,1000.5,1005.4,1001.1,1000.5,1.8,3.3,115,117,1.4,102,26.4,27.1,26.4,98,91,0.7,1,29.61,莱阳,中国,山东省,烟台市,莱阳市,54852,36.9667,120.7167,41.6
54853,2022-08-08 17:00:00,999.6,1005.9,999.6,999.1,7.5,11.8,202,112,3.2,195,25.8,28.3,25.8,97,84,0.0,2,27.7,崂山,中国,山东省,青岛市,李沧区,54853,36.1333,120.5167,54.0
54855,2022-08-08 17:00:00,999.6,1005.1,1000.2,999.6,2.7,4.6,72,74,2.7,70,27.4,27.5,27.4,99,99,0.0,2,34.04,即墨,中国,山东省,青岛市,即墨区,54855,36.4,120.3833,47.8
54857,2022-08-08 17:00:00,997.4,1006.2,997.4,996.2,4.0,6.2,151,236,3.8,193,26.1,27.9,26.1,93,89,1.5,2,28.43,青岛,中国,山东省,青岛市,市南区,54857,36.0667,120.3333,76.0
54861,2022-08-08 17:00:00,1000.7,1006.0,1001.1,1000.7,1.2,1.8,9,999017,0.1,14,26.4,26.4,26.4,93,93,0.0,0,29.27,乳山,中国,山东省,威海市,乳山市,54861,36.9333,121.5333,45.4
54863,2022-08-08 17:00:00,1001.0,1005.8,1001.4,1001.0,2.5,4.5,61,81,2.8,57,26.4,26.6,26.4,96,95,0.1,2,29.47,海阳,中国,山东省,烟台市,海阳市,54863,36.775,121.1783,40.9
54871,2022-08-08 17:00:00,1005.0,1006.3,1005.5,1005.0,2.6,4.5,27,27,2.3,19,25.5,25.6,25.5,100,100,4.5,2,26.83,石岛,中国,山东省,威海市,荣成市,54871,36.9333,122.4833,9.8
54904,2022-08-08 17:00:00,999.8,1005.6,999.9,999.8,4.3,7.0,349,323,3.7,346,24.8,25.5,24.8,91,91,0.0,3,25.71,鄄城,中国,山东省,菏泽市,鄄城县,54904,35.5833,115.5167,50.1
54905,2022-08-08 17:00:00,999.7,1005.1,999.8,999.7,2.5,4.8,295,355,2.5,344,27.4,27.8,27.4,90,89,0.0,2,32.22,郓城,中国,山东省,菏泽市,郓城县,54905,35.5833,115.9333,46.2
54906,2022-08-08 17:00:00,999.1,1005.0,999.4,999.1,4.5,6.2,340,336,2.8,339,25.4,26.3,25.4,93,93,0.0,2,26.42,菏泽,中国,山东省,菏泽市,牡丹区,54906,35.3167,115.5333,50.7
54907,2022-08-08 17:00:00,999.4,1003.4,999.7,999.4,1.4,2.0,160,170,1.0,160,30.6,30.9,30.6,87,85,0.0,1,41.96,鱼台,中国,山东省,济宁市,鱼台县,54907,34.9833,116.65,34.3
54908,2022-08-08 17:00:00,998.6,1005.2,998.7,998.5,3.7,8.3,338,337,4.1,345,24.4,25.2,24.4,92,91,0.0,3,25.3,东明,中国,山东省,菏泽市,东明县,54908,35.2667,115.1,57.3
54909,2022-08-08 17:00:00,998.9,1004.8,998.9,998.8,3.7,5.8,344,353,1.8,341,27.2,28.6,27.2,90,89,0.0,2,31.65,定陶,中国,山东省,菏泽市,定陶区,54909,35.0833,115.5167,51.5
54910,2022-08-08 17:00:00,1000.1,1004.9,1000.2,1000.1,3.7,5.2,312,317,3.3,313,26.9,27.2,26.9,100,100,0.0,2,32.58,梁山,中国,山东省,济宁市,梁山县,54910,35.8125,116.0533,40.9
54911,2022-08-08 17:00:00,999.7,1004.8,999.7,999.2,2.2,5.4,275,267,3.4,271,25.7,26.2,25.7,95,93,0.2,2,27.38,东平,中国,山东省,泰安市,东平县,54911,35.9333,116.4,44.0
54912,2022-08-08 17:00:00,999.5,1004.4,999.6,999.4,1.9,3.8,20,344,1.4,18,25.5,25.6,25.5,95,94,0.0,1,26.59,汶上,中国,山东省,济宁市,汶上县,54912,35.7667,116.5,41.8
54913,2022-08-08 17:00:00,996.3,1004.1,996.6,996.3,2.4,3.6,357,339,2.1,349,25.9,26.3,25.8,88,87,0.0,2,27.72,宁阳,中国,山东省,泰安市,宁阳县,54913,35.7953,116.8067,67.6
54914,2022-08-08 17:00:00,999.9,1004.6,1000.0,999.9,2.5,3.9,8,2,2.1,3,27.7,28.2,27.7,97,95,0.0,2,34.62,巨野,中国,山东省,菏泽市,巨野县,54914,35.4167,116.0833,40.6
54915,2022-08-08 17:00:00,999.4,1003.3,999.5,999.4,1.7,3.2,335,351,1.9,360,28.6,29.3,28.6,91,87,0.0,1,36.16,济宁,中国,山东省,济宁市,任城区,54915,35.4411,116.6014,33.3
54916,2022-08-08 17:00:00,998.2,1003.2,998.4,998.2,3.3,4.5,349,8,1.6,346,28.7,29.8,28.7,88,87,0.0,2,35.71,兖州,中国,山东省,济宁市,兖州区,54916,35.5333,116.8333,43.3
54917,2022-08-08 17:00:00,999.6,1003.8,999.8,999.6,2.6,4.1,335,317,2.2,317,28.8,29.7,28.8,93,91,0.0,2,37.38,金乡,中国,山东省,济宁市,金乡县,54917,35.1333,116.3333,35.8
54918,2022-08-08 17:00:00,996.7,1003.8,997.0,996.7,2.0,3.7,4,26,1.1,13,28.9,29.6,28.9,84,82,0.0,1,35.33,曲阜,中国,山东省,济宁市,曲阜市,54918,35.6,116.9733,62.3
54919,2022-08-08 17:00:00,993.5,1003.7,993.7,993.5,1.3,2.3,193,214,1.1,182,31.7,31.7,31.0,72,72,0.0,1,40.24,邹城,中国,山东省,济宁市,邹城市,54919,35.3667,116.9833,89.8
54920,2022-08-08 17:00:00,991.4,1003.9,991.8,991.4,1.9,3.0,68,85,1.3,66,28.5,28.5,28.3,81,81,0.0,1,33.57,泗水,中国,山东省,济宁市,泗水县,54920,35.65,117.2833,110.4
54921,2022-08-08 17:00:00,1000.0,1004.3,1000.1,1000.0,2.5,4.0,338,327,2.8,327,27.2,27.7,27.2,92,90,0.0,2,32.02,嘉祥,中国,山东省,济宁市,嘉祥县,54921,35.4333,116.2833,37.1
54922,2022-08-08 17:00:00,980.9,1004.1,981.8,980.9,1.3,2.1,87,99,0.5,359,28.1,28.4,28.1,93,89,0.0,1,35.02,新泰,中国,山东省,泰安市,新泰市,54922,35.8667,117.75,206.0
54923,2022-08-08 17:00:00,972.3,1004.3,972.7,972.1,3.3,4.5,92,331,0.4,92,27.5,27.7,27.5,94,94,0.0,1,33.32,蒙阴,中国,山东省,临沂市,蒙阴县,54923,35.7333,117.95,286.5
54925,2022-08-08 17:00:00,985.9,1004.0,986.3,985.8,2.3,3.2,138,134,2.6,124,28.9,29.2,28.9,100,100,0.0,2,39.8,平邑,中国,山东省,临沂市,平邑县,54925,35.5,117.6833,161.2
54927,2022-08-08 17:00:00,995.0,1003.5,995.3,995.0,0.9,2.4,183,153,0.9,166,29.8,30.0,29.6,88,87,0.0,1,39.4,滕州,中国,山东省,枣庄市,滕州市,54927,35.1,117.2,74.9
54929,2022-08-08 17:00:00,985.8,1004.1,986.3,985.8,2.2,2.5,124,148,1.4,117,29.5,29.8,29.5,86,83,0.0,1,37.76,费县,中国,山东省,临沂市,费县,54929,35.2667,117.9667,121.2
54932,2022-08-08 17:00:00,983.4,1004.7,984.0,983.4,1.9,3.0,6,72,2.0,26,25.4,25.8,25.3,91,88,0.0,2,26.37,沂水,中国,山东省,临沂市,沂水县,54932,35.7667,118.65,186.7
54935,2022-08-08 17:00:00,990.9,1004.4,991.6,990.9,1.9,3.0,58,74,1.2,79,28.6,29.4,28.6,79,78,0.0,2,33.46,沂南,中国,山东省,临沂市,沂南县,54935,35.5333,118.4333,119.4
54936,2022-08-08 17:00:00,992.4,1004.4,993.1,992.4,2.3,3.7,22,58,2.6,55,27.5,27.9,27.4,100,100,0.0,2,34.6,莒县,中国,山东省,日照市,莒县,54936,35.5667,118.8333,107.4
54938,2022-08-08 17:00:00,990.3,1004.3,990.9,990.3,3.3,4.3,37,29,3.2,29,29.0,29.7,28.9,87,82,0.0,2,36.4,临沂,中国,山东省,临沂市,兰山区,54938,35.25,118.4167,124.0
54939,2022-08-08 17:00:00,991.5,1004.3,992.0,991.5,1.8,2.8,185,188,1.4,187,30.7,30.9,30.7,84,82,0.0,1,41.25,莒南,中国,山东省,临沂市,莒南县,54939,35.1667,118.8167,113.8
54940,2022-08-08 17:00:00,988.1,1004.8,988.8,988.0,2.2,4.3,301,999017,0.0,305,26.9,27.1,26.8,98,96,0.0,1,32.22,五莲,中国,山东省,日照市,五莲县,54940,35.75,119.2,148.2
54943,2022-08-08 17:00:00,1004.0,1004.8,1004.7,1004.0,4.6,6.1,57,47,2.6,59,26.7,27.3,26.4,100,97,0.1,2,31.93,黄岛,中国,山东省,青岛市,黄岛区,54943,35.8333,120.0333,5.7
54945,2022-08-08 17:00:00,997.3,1004.7,997.7,997.2,1.3,1.8,57,999017,0.1,28,28.8,29.2,28.8,97,96,0.0,1,38.52,日照,中国,山东省,日照市,东港区,54945,35.4667,119.55,64.4
58002,2022-08-08 17:00:00,998.9,1004.5,999.0,998.8,2.9,4.6,342,333,2.3,348,28.8,29.3,28.8,97,97,0.0,2,38.52,曹县,中国,山东省,菏泽市,曹县,58002,34.85,115.5833,49.0
58003,2022-08-08 17:00:00,999.0,1004.2,999.2,999.0,3.8,7.5,360,359,4.8,354,29.2,30.0,29.2,87,87,0.0,3,37.05,成武,中国,山东省,菏泽市,成武县,58003,34.95,115.8833,45.4
58011,2022-08-08 17:00:00,998.6,1003.9,998.6,998.5,2.8,4.9,343,345,3.3,340,30.2,32.2,30.2,90,72,0.0,2,41.52,单县,中国,山东省,菏泽市,单县,58011,34.8,116.0667,46.2
58020,2022-08-08 17:00:00,999.7,1003.8,1000.0,999.7,1.5,2.6,112,113,1.4,108,30.0,30.5,30.0,88,85,0.0,1,40.11,微山,中国,山东省,济宁市,微山县,58020,34.7681,117.1403,35.5
58021,2022-08-08 17:00:00,994.6,1003.7,994.9,994.6,2.3,3.6,152,155,2.0,145,31.6,31.8,31.6,71,71,0.0,2,39.6,薛城,中国,山东省,枣庄市,薛城区,58021,34.7833,117.2833,80.5
58022,2022-08-08 17:00:00,994.7,1004.2,995.0,994.7,0.8,1.1,104,94,0.9,131,28.8,29.0,28.8,91,90,0.0,1,36.83,峄城,中国,山东省,枣庄市,峄城区,58022,34.7667,117.4833,83.4
58024,2022-08-08 17:00:00,995.4,1004.2,995.7,995.4,1.6,2.3,66,78,1.1,65,29.8,30.1,29.6,82,78,0.0,1,37.61,枣庄,中国,山东省,枣庄市,市中区,58024,34.8667,117.5833,77.7
58025,2022-08-08 17:00:00,1000.7,1004.1,1001.0,1000.6,0.8,1.1,17,39,1.0,22,28.9,29.2,28.8,94,92,0.0,1,38.02,台儿庄,中国,山东省,枣庄市,台儿庄区,58025,34.6,117.7167,29.3
58030,2022-08-08 17:00:00,999.1,1004.2,999.4,999.1,0.6,0.7,17,24,0.3,5,29.9,30.1,29.9,92,90,0.0,1,41.08,兰陵,中国,山东省,临沂市,兰陵县,58030,34.8833,118.0167,44.5
58032,2022-08-08 17:00:00,994.1,1004.3,994.6,994.1,2.3,3.6,166,170,2.2,169,31.2,31.3,31.1,79,78,0.0,2,41.19,临沭,中国,山东省,临沂市,临沭县,58032,34.95,118.65,90.1
53688,2022-08-08 17:00:00,997.1,1008.8,997.5,997.1,3.0,5.0,313,356,1.7,305,22.9,23.1,22.8,79,79,0.0,2,23.31,行唐,中国,河北省,石家庄市,行唐县,53688,38.4186,114.5464,100.3
53689,2022-08-08 17:00:00,1003.7,1008.7,1004.0,1003.7,2.0,3.4,56,45,0.7,49,22.9,22.9,22.7,76,72,0.0,1,23.23,晋州,中国,河北省,石家庄市,晋州市,53689,38.0167,115.0667,42.4
53691,2022-08-08 17:00:00,1000.5,1008.8,1001.1,1000.5,2.1,3.7,312,296,1.9,293,22.8,22.9,22.8,86,85,0.0,2,23.38,正定,中国,河北省,石家庄市,正定县,53691,38.15,114.5667,71.0
53695,2022-08-08 17:00:00,1001.3,1008.9,1001.5,1001.3,1.4,2.3,315,318,1.6,236,23.6,24.4,23.4,79,65,0.0,1,24.08,新乐,中国,河北省,石家庄市,新乐市,53695,38.35,114.6833,70.8
53697,2022-08-08 17:00:00,1002.3,1008.6,1002.8,1002.3,0.5,1.3,357,999017,0.1,8,22.9,23.0,22.9,90,88,0.0,0,23.6,藁城,中国,河北省,石家庄市,藁城区,53697,38.0333,114.8333,53.5
53699,2022-08-08 17:00:00,1003.0,1008.7,1003.2,1003.0,1.2,1.7,148,57,0.4,153,23.3,23.7,23.3,85,81,0.0,1,23.9,无极,中国,河北省,石家庄市,无极县,53699,38.1833,114.95,45.4
53773,2022-08-08 17:00:00,999.3,1006.9,999.5,999.1,5.1,9.2,356,7,3.6,356,23.6,23.7,23.5,85,85,0.0,3,24.24,临漳,中国,河北省,邯郸市,临漳县,53773,36.2986,114.595,65.5
53784,2022-08-08 17:00:00,1003.8,1008.4,1004.2,1003.8,4.1,7.6,23,38,3.5,30,22.9,23.1,22.9,81,81,0.0,3,23.36,赵县,中国,河北省,石家庄市,赵县,53784,37.75,114.7833,38.5
53785,2022-08-08 17:00:00,1003.9,1008.1,1004.0,1003.5,3.3,5.2,354,34,2.0,10,22.5,22.6,22.5,99,97,0.0,2,23.39,柏乡,中国,河北省,邢台市,柏乡县,53785,37.5167,114.6667,35.0
53789,2022-08-08 17:00:00,1002.1,1008.3,1002.7,1002.1,2.4,4.9,334,355,1.3,343,23.6,23.7,23.6,81,79,0.0,1,24.13,栾城,中国,河北省,石家庄市,栾城区,53789,37.8833,114.6333,52.9
53790,2022-08-08 17:00:00,1002.5,1007.8,1002.8,1002.3,4.3,7.6,344,342,3.5,347,22.6,22.9,22.6,84,83,0.0,3,23.11,高邑,中国,河北省,石家庄市,高邑县,53790,37.6347,114.6078,44.5
53794,2022-08-08 17:00:00,1004.7,1008.4,1004.8,1004.3,4.8,6.8,39,38,2.9,5,21.2,21.9,21.2,87,85,0.0,2,21.65,隆尧,中国,河北省,邢台市,隆尧县,53794,37.3903,114.7842,31.0
53796,2022-08-08 17:00:00,1004.4,1008.1,1005.0,1004.3,3.0,7.9,28,59,2.6,44,22.5,22.6,22.4,84,84,0.0,2,23.0,宁晋,中国,河北省,邢台市,宁晋县,53796,37.6178,114.8914,30.6
53799,2022-08-08 17:00:00,1005.1,1008.2,1005.1,1004.9,5.9,9.7,25,7,4.6,20,20.5,20.9,20.4,88,88,0.0,3,20.9,巨鹿,中国,河北省,邢台市,巨鹿县,53799,37.2378,114.9989,25.9
53883,2022-08-08 17:00:00,1003.2,1007.6,1003.4,1003.1,4.1,6.4,23,20,4.0,26,21.8,22.1,21.8,94,90,0.0,3,22.49,任县,中国,河北省,邢台市,任县,53883,37.1333,114.7,36.5
53891,2022-08-08 17:00:00,1002.0,1007.5,1002.2,1001.8,4.6,9.8,20,44,3.3,13,22.1,23.2,22.1,81,77,0.0,3,22.48,南和,中国,河北省,邢台市,南和县,53891,37.0167,114.6833,43.0
53893,2022-08-08 17:00:00,1003.1,1007.6,1003.1,1002.7,6.5,9.6,351,349,4.4,353,21.4,22.2,21.4,100,99,0.0,3,22.21,曲周,中国,河北省,邯郸市,曲周县,53893,36.7889,115.005,37.9
53896,2022-08-08 17:00:00,1000.7,1006.8,1001.0,1000.7,3.1,5.9,354,16,2.5,5,23.0,23.1,23.0,90,89,0.0,2,23.71,魏县,中国,河北省,邯郸市,魏县,53896,36.3278,114.9494,51.6
53899,2022-08-08 17:00:00,1001.3,1007.0,1001.6,1001.3,3.7,6.8,9,360,4.3,357,22.5,22.6,22.5,88,88,0.0,3,23.1,广平,中国,河北省,邯郸市,广平县,53899,36.4833,114.9667,48.5
53980,2022-08-08 17:00:00,1001.1,1007.0,1001.3,1001.1,4.0,8.5,359,355,4.3,1,23.3,23.3,23.2,87,87,0.0,3,23.96,肥乡,中国,河北省,邯郸市,肥乡区,53980,36.55,114.8,50.2
53996,2022-08-08 17:00:00,1000.4,1007.2,1000.5,1000.2,4.1,7.8,3,359,4.9,6,23.4,23.5,23.3,85,85,0.0,3,24.02,成安,中国,河北省,邯郸市,成安县,53996,36.45,114.65,57.9
54604,2022-08-08 17:00:00,1005.2,1008.9,1005.2,1004.8,3.6,6.3,100,91,2.7,98,23.5,24.2,23.5,67,66,0.0,3,23.66,安国,中国,河北省,保定市,安国市,54604,38.4047,115.2919,31.0
54606,2022-08-08 17:00:00,1006.7,1008.9,1006.7,1006.3,4.4,7.3,8,11,3.3,11,21.0,23.1,21.0,86,73,0.6,3,21.4,饶阳,中国,河北省,衡水市,饶阳县,54606,38.2231,115.7431,17.9
54608,2022-08-08 17:00:00,1005.4,1008.5,1005.5,1005.2,3.3,8.0,28,27,4.3,26,20.1,22.6,20.1,96,84,15.3,2,20.67,深州,中国,河北省,衡水市,深州市,54608,37.9903,115.5442,25.5
54609,2022-08-08 17:00:00,1006.4,1009.1,1006.5,1006.1,4.6,6.8,20,34,2.4,11,20.3,23.4,20.3,87,79,1.4,2,20.66,安平,中国,河北省,衡水市,安平县,54609,38.2306,115.5869,22.4
54614,2022-08-08 17:00:00,1007.4,1008.8,1007.7,1007.1,3.5,7.6,358,1,4.6,12,20.5,22.2,20.5,82,68,0.4,3,20.75,河间,中国,河北省,沧州市,河间市,54614,38.4197,116.0561,10.9
54616,2022-08-08 17:00:00,1006.5,1007.6,1007.3,1006.5,3.0,5.8,33,55,2.9,33,23.2,23.9,23.1,69,66,0.0,2,23.38,沧州,中国,河北省,沧州市,运河区,54616,38.35,116.85,8.0
54617,2022-08-08 17:00:00,1006.7,1008.4,1006.8,1006.5,3.5,6.7,4,31,3.6,9,22.5,23.2,22.5,72,71,0.0,2,22.69,献县,中国,河北省,沧州市,献县,54617,38.205,116.1706,13.3
54618,2022-08-08 17:00:00,1006.3,1008.0,1006.6,1006.1,4.5,7.6,42,90,1.3,40,22.5,22.7,22.5,83,75,0.3,1,22.97,泊头,中国,河北省,沧州市,泊头市,54618,38.0833,116.55,13.2
54620,2022-08-08 17:00:00,1006.7,1009.2,1006.8,1006.4,3.7,6.6,98,99,3.1,101,21.5,24.5,21.5,79,60,0.0,2,21.77,蠡县,中国,河北省,保定市,蠡县,54620,38.4833,115.5667,18.5
54621,2022-08-08 17:00:00,1004.4,1008.9,1004.6,1004.1,1.9,4.6,65,69,1.9,126,23.1,23.1,22.7,72,71,0.0,1,23.35,深泽,中国,河北省,石家庄市,深泽县,54621,38.1833,115.1833,38.1
54624,2022-08-08 17:00:00,1007.1,1007.8,1007.4,1006.9,3.0,5.1,18,151,0.6,22,23.8,24.8,23.8,81,68,0.5,1,24.35,黄骅,中国,河北省,沧州市,黄骅市,54624,38.4081,117.3214,4.5
54626,2022-08-08 17:00:00,1007.6,1009.4,1008.1,1007.4,3.6,7.1,61,32,2.8,53,19.8,22.4,19.8,87,72,5.2,2,20.11,肃宁,中国,河北省,沧州市,肃宁县,54626,38.4167,115.8167,13.9
54627,2022-08-08 17:00:00,1006.0,1007.1,1006.5,1006.0,4.5,7.6,56,56,4.7,54,21.9,23.0,21.9,90,80,6.3,3,22.5,盐山,中国,河北省,沧州市,盐山县,54627,38.0333,117.2333,8.2
54628,2022-08-08 17:00:00,1006.7,1007.4,1006.8,1006.4,4.0,5.9,54,40,3.0,60,22.9,23.2,22.9,90,87,2.1,3,23.6,海兴,中国,河北省,沧州市,海兴县,54628,38.0839,117.4136,5.0
54631,2022-08-08 17:00:00,1003.6,1007.4,1003.8,1003.6,4.0,7.8,358,354,4.1,357,20.2,20.8,20.2,92,92,0.0,3,20.68,广宗,中国,河北省,邢台市,广宗县,54631,37.0939,115.1314,31.4
54632,2022-08-08 17:00:00,1003.6,1007.7,1003.6,1003.4,3.2,8.1,40,343,3.1,352,20.5,21.4,20.5,95,95,0.0,2,21.09,平乡,中国,河北省,邢台市,平乡县,54632,37.0667,115.0333,34.0
54633,2022-08-08 17:00:00,1004.9,1008.1,1005.1,1004.7,4.7,7.3,351,350,4.6,349,19.6,19.9,19.5,100,100,0.0,3,20.23,新河,中国,河北省,邢台市,新河县,54633,37.5081,115.2706,26.1
54640,2022-08-08 17:00:00,1003.3,1007.7,1003.3,1002.9,4.8,9.7,2,12,4.6,355,21.6,22.6,21.6,82,82,0.0,3,21.96,鸡泽,中国,河北省,邯郸市,鸡泽县,54640,36.8903,114.8728,36.6
54644,2022-08-08 17:00:00,1006.0,1007.4,1006.6,1005.9,2.4,3.9,88,81,2.6,82,22.4,23.3,22.4,94,89,3.4,2,23.15,孟村,中国,河北省,沧州市,孟村回族自治县,54644,38.0555,117.1239,10.5
54700,2022-08-08 17:00:00,1006.4,1008.4,1006.4,1005.8,3.0,5.5,34,57,1.2,34,23.1,23.4,23.1,79,68,0.0,2,23.53,武强,中国,河北省,衡水市,武强县,54700,38.0333,115.9333,16.2
54701,2022-08-08 17:00:00,1004.7,1009.0,1004.7,1004.0,1.4,3.4,56,265,0.4,53,21.7,21.7,21.6,82,80,0.0,1,22.07,辛集,中国,河北省,石家庄市,辛集市,54701,37.9333,115.2,35.9
54702,2022-08-08 17:00:00,1005.3,1007.8,1005.5,1005.1,3.1,7.7,18,9,2.2,20,20.5,21.1,20.5,92,86,1.7,2,21.01,衡水,中国,河北省,衡水市,桃城区,54702,37.7333,115.7,20.7
54703,2022-08-08 17:00:00,1005.5,1008.0,1005.6,1004.9,4.0,7.3,5,4,4.1,8,20.3,20.8,20.3,94,94,1.5,2,20.84,武邑,中国,河北省,衡水市,武邑县,54703,37.7858,115.9044,20.7
54704,2022-08-08 17:00:00,1004.7,1007.7,1004.9,1004.5,4.2,7.9,6,354,2.7,5,20.6,20.7,20.4,95,94,0.2,2,21.2,冀州,中国,河北省,衡水市,冀州区,54704,37.5122,115.5614,24.8
54705,2022-08-08 17:00:00,1004.7,1008.0,1004.8,1004.5,3.0,7.1,352,353,3.0,355,20.2,20.3,20.2,96,95,0.1,2,20.78,南宫,中国,河北省,邢台市,南宫市,54705,37.3667,115.3833,27.4
54706,2022-08-08 17:00:00,1003.1,1006.6,1003.2,1003.1,3.3,7.7,355,349,3.7,341,20.7,21.6,20.7,97,96,0.1,2,21.36,清河,中国,河北省,邢台市,清河县,54706,37.0833,115.6667,31.5
54707,2022-08-08 17:00:00,1003.8,1007.1,1003.8,1003.3,4.0,6.8,7,359,4.2,358,21.9,22.8,21.9,95,95,1.5,3,22.63,故城,中国,河北省,衡水市,故城县,54707,37.35,115.9833,27.4
54708,2022-08-08 17:00:00,1004.5,1007.4,1004.6,1004.2,5.0,9.6,8,17,3.9,360,20.5,20.8,20.5,100,99,0.7,3,21.22,枣强,中国,河北省,衡水市,枣强县,54708,37.5,115.7333,23.6
54710,2022-08-08 17:00:00,1005.4,1007.4,1005.7,1005.4,3.7,7.4,15,22,3.3,19,20.7,20.9,20.7,100,100,0.4,3,21.44,阜城,中国,河北省,衡水市,阜城县,54710,37.8447,116.1506,15.8
54711,2022-08-08 17:00:00,1004.9,1006.8,1005.2,1004.7,4.0,7.1,26,6,1.8,32,21.8,21.9,21.8,100,100,0.6,2,22.65,景县,中国,河北省,衡水市,景县,54711,37.6686,116.265,15.0
54713,2022-08-08 17:00:00,1005.5,1007.3,1006.4,1005.4,4.7,7.7,50,53,4.0,54,21.4,22.5,21.4,96,93,5.2,3,22.1,东光,中国,河北省,沧州市,东光县,54713,37.8833,116.5333,14.4
54717,2022-08-08 17:00:00,1004.6,1006.7,1005.1,1004.6,4.0,6.7,44,45,3.3,43,21.7,22.0,21.7,96,95,1.6,3,22.43,吴桥,中国,河北省,沧州市,吴桥县,54717,37.6333,116.4,17.1
54719,2022-08-08 17:00:00,1006.7,1008.1,1006.8,1006.2,3.6,7.8,55,357,1.4,53,21.2,22.5,21.2,92,82,4.4,1,21.78,南皮,中国,河北省,沧州市,南皮县,54719,38.0119,116.6822,10.8
54800,2022-08-08 17:00:00,1003.3,1007.3,1003.4,1003.1,5.0,8.5,343,4,4.9,2,20.1,21.0,20.1,100,98,0.0,3,20.78,威县,中国,河北省,邢台市,威县,54800,37.0,115.25,33.3
54801,2022-08-08 17:00:00,1002.4,1006.6,1002.6,1002.4,4.5,8.3,326,340,3.1,339,20.8,21.7,20.8,99,99,0.0,2,21.52,临西,中国,河北省,邢台市,临西县,54801,36.85,115.4833,35.3
54804,2022-08-08 17:00:00,1001.4,1006.7,1001.5,1001.2,3.7,7.7,337,331,3.0,343,22.0,22.5,22.0,95,95,0.0,2,22.74,大名,中国,河北省,邯郸市,大名县,54804,36.3042,115.1814,45.3
54809,2022-08-08 17:00:00,1001.6,1006.5,1001.8,1001.6,3.4,7.8,336,348,2.8,341,21.8,22.4,21.8,94,94,0.0,2,22.49,馆陶,中国,河北省,邯郸市,馆陶县,54809,36.55,115.2833,41.3
54820,2022-08-08 17:00:00,1002.6,1007.2,1002.6,1002.3,5.4,8.4,354,340,4.0,351,20.8,21.6,20.8,97,96,0.0,3,21.47,邱县,中国,河北省,邯郸市,邱县,54820,36.81,115.2078,39.0
53992,2022-08-08 17:00:00,999.2,1006.0,999.6,999.1,5.1,9.4,357,4,4.5,4,24.0,24.2,24.0,84,84,0.0,3,24.65,浚县,中国,河南省,鹤壁市,浚县,53992,35.6589,114.5183,58.2
53993,2022-08-08 17:00:00,1000.4,1006.4,1000.6,1000.4,4.8,8.8,357,347,4.0,350,23.5,23.6,23.4,86,86,0.0,3,24.15,内黄,中国,河南省,安阳市,内黄县,53993,35.9425,114.91,51.6
53998,2022-08-08 17:00:00,998.5,1005.6,998.7,998.4,3.5,8.2,4,341,2.7,340,24.6,24.9,24.6,99,98,0.0,2,25.7,长垣,中国,河南省,新乡市,长垣县,53998,35.1933,114.6547,61.6
54817,2022-08-08 17:00:00,1000.4,1005.5,1000.4,1000.3,3.1,5.5,266,303,2.8,276,25.3,26.5,25.3,100,100,6.0,2,26.5,台前,中国,河南省,濮阳市,台前县,54817,35.9842,115.8619,42.1
54900,2022-08-08 17:00:00,999.7,1006.0,1000.0,999.7,5.5,9.6,340,340,4.5,349,23.7,24.0,23.6,92,92,0.0,3,24.53,濮阳,中国,河南省,濮阳市,濮阳县,54900,35.6967,115.0317,53.7
54901,2022-08-08 17:00:00,1000.5,1006.0,1000.6,1000.4,4.1,8.6,355,348,3.2,340,22.7,23.1,22.6,96,96,0.0,2,23.53,南乐,中国,河南省,濮阳市,南乐县,54901,36.0581,115.2414,46.6
54902,2022-08-08 17:00:00,1000.3,1006.1,1000.6,1000.3,5.0,9.9,341,339,3.5,344,22.7,23.1,22.7,96,96,0.1,3,23.53,清丰,中国,河南省,濮阳市,清丰县,54902,35.9419,115.1428,49.3
54903,2022-08-08 17:00:00,1000.4,1005.8,1000.5,1000.3,3.8,6.5,322,334,3.8,323,23.2,24.1,23.2,100,100,0.0,2,24.19,范县,中国,河南省,濮阳市,范县,54903,35.8492,115.4761,46.0
57093,2022-08-08 17:00:00,996.9,1005.0,997.0,996.9,3.8,6.7,3,3,3.5,12,25.0,25.8,25.0,97,94,0.0,3,26.09,兰考,中国,河南省,开封市,兰考县,57093,34.8611,114.7989,70.8
57096,2022-08-08 17:00:00,997.6,1004.4,997.7,997.4,3.0,6.8,17,44,3.2,26,27.3,28.8,27.3,95,92,0.0,2,32.9,杞县,中国,河南省,开封市,杞县,57096,34.5406,114.7819,59.7
57099,2022-08-08 17:00:00,997.6,1003.6,997.7,997.5,0.9,2.6,142,71,0.7,147,31.8,32.0,31.7,75,74,0.0,1,41.66,太康,中国,河南省,周口市,太康县,57099,34.0744,114.8497,52.6
58001,2022-08-08 17:00:00,997.7,1004.1,997.7,997.6,3.5,5.7,37,20,3.3,12,28.1,29.0,28.1,99,91,0.0,3,36.49,睢县,中国,河南省,商丘市,睢县,58001,34.4769,115.0325,56.1
58004,2022-08-08 17:00:00,997.2,1004.3,997.4,997.2,4.1,7.0,352,12,3.7,6,28.0,28.6,28.0,100,98,0.0,3,36.38,民权,中国,河南省,商丘市,民权县,58004,34.6194,115.1944,61.6
58005,2022-08-08 17:00:00,997.9,1003.7,997.9,997.8,2.6,3.8,343,348,2.5,344,29.8,29.8,29.1,92,92,0.0,2,40.7,商丘,中国,河南省,商丘市,梁园区,58005,34.4372,115.5353,50.8
58006,2022-08-08 17:00:00,998.0,1003.4,998.3,998.0,1.0,1.3,129,999017,0.2,110,29.1,29.5,29.1,93,91,0.0,1,38.44,虞城,中国,河南省,商丘市,虞城县,58006,34.3903,115.8794,46.3
58007,2022-08-08 17:00:00,998.0,1003.3,998.1,998.0,1.2,1.4,127,999017,0.1,127,29.1,29.3,29.1,100,100,0.0,1,40.6,柘城,中国,河南省,商丘市,柘城县,58007,34.0983,115.3592,45.7
58008,2022-08-08 17:00:00,997.7,1004.1,997.7,997.5,3.5,6.0,14,16,3.8,358,28.3,29.8,28.3,100,100,0.0,2,37.49,宁陵,中国,河南省,商丘市,宁陵县,58008,34.4867,115.3156,55.8
58017,2022-08-08 17:00:00,998.7,1003.6,998.9,998.7,1.2,1.5,118,118,1.1,120,29.2,29.5,29.2,98,96,0.0,1,40.36,夏邑,中国,河南省,商丘市,夏邑县,58017,34.2831,116.1508,42.6
