Station_Id_C,dt,PRS,PRS_Sea,PRS_Max,PRS_Min,WIN_S_Max,WIN_S_Inst_Max,WIN_D_INST_Max,WIN_D_Avg_2mi,WIN_S_Avg_2mi,WIN_D_S_Max,TEM,TEM_Max,TEM_Min,RHU,RHU_Min,PRE_1h,windpower,tigan,Station_Name,Country,Province,City,Cnty,Station_Id_d,Lat,Lon,Alti
58015,2022-08-08 07:00:00,997.1,1001.9,997.5,997.1,3.1,5.1,177,198,2.4,180,34.7,34.7,34.4,65,61,0.0,2,46.59,砀山,中国,安徽省,宿州市,砀山县,58015,34.4389,116.3397,42.1
58016,2022-08-08 07:00:00,998.2,1002.2,998.5,998.2,2.7,5.8,205,160,2.2,191,36.1,37.3,36.1,56,52,0.0,2,46.31,萧县,中国,安徽省,宿州市,萧县,58016,34.1803,116.9628,34.9
58116,2022-08-08 07:00:00,998.5,1002.3,998.8,998.5,3.3,5.9,197,183,2.8,192,35.9,36.2,35.6,61,57,0.0,2,48.37,淮北,中国,安徽省,淮北市,杜集区,58116,34.0333,116.8689,32.9
58012,2022-08-08 07:00:00,997.7,1002.5,998.0,997.7,2.6,4.4,155,183,1.7,161,34.4,34.5,34.1,72,71,0.0,2,49.25,丰县,中国,江苏省,徐州市,丰县,58012,34.6719,116.6561,42.0
58013,2022-08-08 07:00:00,998.4,1002.6,998.7,998.4,2.3,3.6,200,209,1.6,208,34.5,34.5,34.3,64,62,0.0,1,45.46,沛县,中国,江苏省,徐州市,沛县,58013,34.7533,116.9058,36.5
58026,2022-08-08 07:00:00,999.8,1002.8,1000.2,999.8,3.7,6.7,206,205,3.4,214,37.1,37.2,36.1,52,49,0.0,3,47.11,邳州,中国,江苏省,徐州市,邳州市,58026,34.3942,118.0189,25.7
58027,2022-08-08 07:00:00,997.7,1002.4,998.0,997.7,2.9,4.6,285,218,1.6,232,36.7,37.3,36.6,51,49,0.0,2,45.46,徐州,中国,江苏省,徐州市,市辖区,58027,34.2872,117.1586,41.2
58035,2022-08-08 07:00:00,999.9,1003.3,999.9,999.8,3.4,6.0,219,209,2.9,232,36.3,36.6,36.1,55,52,0.0,2,46.38,新沂,中国,江苏省,徐州市,新沂市,58035,34.3319,118.3536,29.3
58036,2022-08-08 07:00:00,999.4,1003.2,999.7,999.4,2.3,4.1,204,199,1.8,198,35.6,35.6,35.4,59,59,0.0,2,46.36,东海,中国,江苏省,连云港市,东海县,58036,34.5425,118.7136,32.9
58038,2022-08-08 07:00:00,1002.2,1003.5,1002.6,1002.2,2.9,4.9,192,179,3.6,187,36.5,36.7,36.3,55,54,0.0,2,46.97,沭阳,中国,江苏省,宿迁市,沭阳县,58038,34.0911,118.7836,10.4
58040,2022-08-08 07:00:00,1002.5,1003.2,1002.7,1002.3,3.3,6.2,257,197,2.7,232,35.9,36.5,35.9,58,52,0.0,2,46.75,赣榆,中国,江苏省,连云港市,赣榆区,58040,34.8564,119.1269,5.3
58041,2022-08-08 07:00:00,1000.3,1003.4,1000.8,1000.2,5.4,6.7,126,115,3.9,124,33.6,35.7,33.0,77,68,0.0,3,48.93,西连岛,中国,江苏省,连云港市,连云区,58041,34.7778,119.4425,26.2
58044,2022-08-08 07:00:00,1002.7,1003.4,1003.0,1002.6,3.0,4.6,208,195,2.5,189,35.9,36.4,35.9,61,53,0.0,2,48.37,连云港,中国,江苏省,连云港市,市辖区,58044,34.5489,119.2347,4.7
58045,2022-08-08 07:00:00,1002.9,1003.6,1003.6,1002.9,3.5,5.2,169,190,2.5,177,36.0,36.5,35.7,65,61,0.0,2,51.02,响水,中国,江苏省,盐城市,响水县,58045,34.1142,119.3606,4.4
58047,2022-08-08 07:00:00,1002.6,1003.3,1003.2,1002.6,3.6,6.0,200,183,3.0,201,36.9,37.3,36.8,52,50,0.0,2,46.54,灌云,中国,江苏省,连云港市,灌云县,58047,34.2575,119.2361,4.8
58048,2022-08-08 07:00:00,1002.4,1003.4,1003.1,1002.4,4.0,5.7,160,164,3.7,160,35.5,36.6,35.5,68,50,0.0,3,51.01,灌南,中国,江苏省,连云港市,灌南县,58048,34.0639,119.2928,8.0
58049,2022-08-08 07:00:00,1003.3,1003.9,1004.1,1003.3,2.5,4.8,250,206,1.5,235,36.1,36.4,35.6,65,63,0.0,1,51.38,滨海,中国,江苏省,盐城市,滨海县,58049,34.0164,119.8031,4.1
54709,2022-08-08 07:00:00,1001.5,1004.5,1001.5,1001.2,4.4,7.1,60,59,3.9,59,26.2,27.2,26.2,100,100,0.6,3,29.07,武城,中国,山东省,德州市,武城县,54709,37.2333,116.0667,24.8
54712,2022-08-08 07:00:00,1002.5,1004.7,1002.5,1002.1,4.0,6.6,37,34,4.7,42,26.8,27.0,26.8,100,99,0.7,3,32.25,临邑,中国,山东省,德州市,临邑县,54712,37.2,116.8167,18.5
54714,2022-08-08 07:00:00,1001.7,1004.7,1001.8,1001.5,4.0,6.9,68,56,4.0,53,26.0,26.2,26.0,98,98,0.2,3,28.34,德州,中国,山东省,德州市,德城区,54714,37.35,116.3333,25.4
54715,2022-08-08 07:00:00,1002.8,1004.9,1002.9,1002.5,4.5,7.0,73,64,3.9,67,26.3,26.6,26.2,94,93,0.4,3,29.05,陵城,中国,山东省,临沂市,兰陵县,54715,37.3167,116.5167,17.6
54716,2022-08-08 07:00:00,1003.1,1005.2,1003.1,1002.9,3.8,7.1,68,65,2.6,67,26.6,26.6,26.2,85,83,0.0,2,29.24,宁津,中国,山东省,德州市,宁津县,54716,37.6667,116.8,17.3
54722,2022-08-08 07:00:00,1004.7,1005.6,1004.8,1004.5,5.0,8.3,61,64,4.5,62,26.7,26.9,26.7,90,88,0.0,3,30.28,无棣,中国,山东省,滨州市,无棣县,54722,37.75,117.6333,6.8
54723,2022-08-08 07:00:00,1004.4,1005.7,1004.7,1004.4,3.8,7.6,62,82,4.0,72,26.4,26.6,26.4,83,83,0.0,3,28.64,阳信,中国,山东省,滨州市,阳信县,54723,37.65,117.5667,10.1
54724,2022-08-08 07:00:00,1003.3,1005.1,1003.3,1002.9,3.7,6.8,36,44,2.7,40,26.3,26.5,26.3,95,95,0.9,2,29.11,商河,中国,山东省,济南市,商河县,54724,37.3167,117.1333,14.8
54725,2022-08-08 07:00:00,1003.9,1005.4,1004.1,1003.8,4.0,6.7,50,47,3.6,51,25.9,26.2,25.9,99,99,0.1,3,28.06,惠民,中国,山东省,滨州市,惠民县,54725,37.5,117.5333,11.7
54726,2022-08-08 07:00:00,1003.9,1005.3,1004.2,1003.8,4.0,7.6,59,74,3.4,74,26.7,26.9,26.7,90,90,0.0,2,30.28,乐陵,中国,山东省,德州市,乐陵市,54726,37.7,117.1833,11.5
54727,2022-08-08 07:00:00,974.2,1003.6,974.5,974.1,5.6,8.0,99,79,1.9,98,30.1,30.1,27.8,79,79,0.0,2,37.69,章丘,中国,山东省,济南市,章丘区,54727,36.65,117.5167,263.0
54728,2022-08-08 07:00:00,1004.2,1005.5,1004.5,1004.1,4.5,8.8,82,80,4.6,76,26.6,26.7,26.6,82,82,0.0,3,29.02,庆云,中国,山东省,德州市,庆云县,54728,37.7667,117.35,10.5
54729,2022-08-08 07:00:00,1003.3,1004.7,1003.4,1003.3,3.4,5.7,64,59,2.0,67,27.4,27.7,27.4,94,93,0.0,2,33.01,高青,中国,山东省,淄博市,高青县,54729,37.1667,117.8667,11.5
54734,2022-08-08 07:00:00,1003.2,1005.4,1003.3,1002.9,3.7,6.8,93,53,2.7,52,25.9,26.1,25.8,95,94,0.1,2,27.94,滨州,中国,山东省,滨州市,滨城区,54734,37.35,118.0333,17.8
54736,2022-08-08 07:00:00,1004.5,1005.3,1004.5,1004.2,3.5,7.4,71,40,3.8,71,26.8,27.4,26.8,87,87,0.0,2,30.05,东营,中国,山东省,东营市,东营区,54736,37.4333,118.6667,6.0
54744,2022-08-08 07:00:00,1004.9,1006.0,1004.9,1004.3,4.4,8.6,46,67,3.4,52,26.1,26.9,26.1,83,83,0.1,3,27.99,垦利,中国,山东省,东营市,垦利区,54744,37.5833,118.55,8.5
54749,2022-08-08 07:00:00,998.7,1004.3,998.9,998.5,2.8,4.2,79,62,2.1,79,29.8,29.8,28.1,80,80,0.0,2,37.06,莱州,中国,山东省,烟台市,莱州市,54749,37.1833,119.95,48.4
54751,2022-08-08 07:00:00,1000.4,1005.1,1000.9,1000.4,4.8,7.7,42,34,4.0,42,25.7,26.0,25.6,94,94,0.0,3,27.36,长岛,中国,山东省,烟台市,长岛县,54751,37.9392,120.7256,39.7
54752,2022-08-08 07:00:00,998.3,1005.3,998.6,998.2,2.7,6.0,8,40,2.5,21,26.2,26.6,26.2,90,89,0.0,2,28.55,蓬莱,中国,山东省,烟台市,蓬莱市,54752,37.8,120.7667,60.7
54753,2022-08-08 07:00:00,1004.5,1005.2,1004.7,1004.3,4.2,7.1,68,62,3.6,68,28.2,28.4,27.4,92,90,0.0,3,35.1,龙口,中国,山东省,烟台市,龙口市,54753,37.6333,120.3333,4.8
54755,2022-08-08 07:00:00,991.4,1004.9,991.8,991.3,2.5,3.7,77,73,2.3,65,28.0,28.1,27.3,87,85,0.0,2,33.33,招远,中国,山东省,烟台市,招远市,54755,37.3283,120.3869,117.8
54759,2022-08-08 07:00:00,981.6,1004.9,982.2,981.4,4.3,6.1,55,44,4.9,44,26.7,26.7,25.6,95,95,0.1,3,31.1,栖霞,中国,山东省,烟台市,栖霞市,54759,37.3247,120.8519,205.5
54764,2022-08-08 07:00:00,998.8,1005.0,999.3,998.6,2.3,3.9,50,50,1.2,56,27.9,28.1,27.8,82,81,0.0,2,32.15,福山,中国,山东省,烟台市,福山区,54764,37.4833,121.2333,53.9
54765,2022-08-08 07:00:00,995.9,1005.3,996.2,995.8,2.3,3.4,17,15,2.3,40,27.5,28.0,27.5,88,83,0.0,2,32.11,烟台,中国,山东省,烟台市,莱山区,54765,37.4833,121.4333,82.0
54776,2022-08-08 07:00:00,999.7,1005.3,999.8,999.6,3.6,4.9,323,6,0.5,321,27.3,27.3,26.6,90,89,0.0,1,31.93,成山头,中国,山东省,威海市,荣成市,54776,37.4,122.7,47.7
54777,2022-08-08 07:00:00,991.6,1005.1,991.9,991.6,4.0,5.6,6,34,2.7,348,27.7,27.8,27.5,83,83,0.0,2,31.78,文登,中国,山东省,威海市,文登区,54777,37.2,122.0667,118.0
54802,2022-08-08 07:00:00,999.2,1003.2,999.6,999.2,1.9,3.5,104,95,1.6,104,28.3,28.3,28.2,92,91,0.0,1,35.43,临清,中国,山东省,聊城市,临清市,54802,36.8167,115.7333,34.0
54806,2022-08-08 07:00:00,998.8,1003.0,999.2,998.8,3.3,5.3,63,55,2.2,69,30.7,30.7,29.7,86,84,0.0,2,41.97,聊城,中国,山东省,聊城市,东昌府区,54806,36.3494,115.9761,36.1
54807,2022-08-08 07:00:00,997.9,1002.7,998.2,997.9,2.4,4.4,57,70,2.3,60,31.0,31.0,30.1,89,89,0.0,2,44.27,阳谷,中国,山东省,聊城市,阳谷县,54807,36.15,115.7667,41.2
54808,2022-08-08 07:00:00,998.5,1003.0,998.6,998.5,2.4,3.7,41,76,1.9,64,30.6,30.6,30.1,87,86,0.0,2,41.96,莘县,中国,山东省,聊城市,莘县,54808,36.2156,115.6267,38.7
54812,2022-08-08 07:00:00,1000.6,1003.5,1000.9,1000.6,4.0,6.1,79,69,3.1,72,29.2,29.2,28.9,100,100,0.0,3,41.0,齐河,中国,山东省,德州市,齐河县,54812,36.7333,116.7167,24.7
54814,2022-08-08 07:00:00,999.7,1003.2,1000.1,999.7,3.8,5.2,70,51,3.3,70,30.2,30.6,30.2,88,86,0.0,3,40.83,茌平,中国,山东省,聊城市,茌平县,54814,36.5333,116.25,29.7
54815,2022-08-08 07:00:00,999.2,1002.9,999.6,999.2,2.5,4.3,87,73,1.5,60,30.7,30.7,29.6,89,88,0.0,2,43.08,东阿,中国,山东省,聊城市,东阿县,54815,36.3833,116.2667,31.4
54816,2022-08-08 07:00:00,991.8,1003.0,992.3,991.8,2.7,3.7,45,29,2.3,32,30.7,30.7,30.0,84,83,0.0,2,41.25,长清,中国,山东省,济南市,长清区,54816,36.5167,116.8,98.9
54818,2022-08-08 07:00:00,994.1,1003.2,994.4,994.0,2.7,3.8,31,9,2.4,19,30.3,30.3,29.0,89,88,0.0,2,41.55,平阴,中国,山东省,济南市,平阴县,54818,36.25,116.4167,79.9
54819,2022-08-08 07:00:00,990.1,1003.0,990.4,990.1,0.6,1.5,91,93,0.5,72,31.9,32.1,31.8,81,77,0.0,1,44.43,肥城,中国,山东省,泰安市,肥城市,54819,36.1833,116.8,113.6
54821,2022-08-08 07:00:00,1002.1,1004.6,1002.1,1001.8,3.5,6.2,83,58,2.7,63,28.2,28.4,28.1,89,87,0.0,2,34.39,济阳,中国,山东省,济南市,济阳县,54821,37.0,117.2,20.4
54822,2022-08-08 07:00:00,998.7,1004.2,998.8,998.6,3.6,5.9,78,92,2.9,86,28.6,29.2,28.6,97,94,0.0,2,37.78,邹平,中国,山东省,滨州市,邹平县,54822,36.8667,117.7333,47.4
54823,2022-08-08 07:00:00,984.5,1003.7,984.7,984.5,1.3,2.2,56,1,1.0,30,30.0,30.0,29.1,82,81,0.0,1,38.24,济南,中国,山东省,济南市,市中区,54823,36.6019,117.0081,170.3
54824,2022-08-08 07:00:00,993.4,1004.3,993.7,993.4,1.4,2.3,352,284,0.5,341,29.4,29.4,28.2,88,87,0.0,1,38.01,淄川,中国,山东省,淄博市,淄川区,54824,36.6333,117.95,95.0
54825,2022-08-08 07:00:00,981.6,1003.0,981.9,981.6,1.8,3.4,46,28,0.8,21,28.7,28.9,28.4,70,70,0.0,1,32.08,博山,中国,山东省,淄博市,博山区,54825,36.5167,117.85,189.7
54826,2022-08-08 07:00:00,844.2,1006.5,844.4,844.2,3.7,4.6,215,138,2.1,219,21.8,21.8,20.8,100,100,0.0,2,22.65,泰山,中国,山东省,泰安市,泰山区,54826,36.25,117.1,1533.7
54827,2022-08-08 07:00:00,989.2,1003.7,989.4,989.2,2.2,3.5,53,71,2.1,54,32.1,32.3,31.4,73,72,0.0,2,41.85,泰安,中国,山东省,泰安市,泰山区,54827,36.1667,117.15,128.6
54828,2022-08-08 07:00:00,977.8,1003.5,977.9,977.6,2.6,4.3,120,88,1.8,77,31.6,31.7,31.3,74,72,0.0,2,40.66,莱芜,中国,山东省,莱芜市, ,54828,36.2333,117.6833,229.3
54829,2022-08-08 07:00:00,994.5,1004.4,994.8,994.5,2.2,4.6,63,57,2.2,61,28.0,28.0,27.7,94,93,0.0,2,34.93,周村,中国,山东省,淄博市,周村区,54829,36.7667,117.8667,85.7
54830,2022-08-08 07:00:00,1000.3,1004.4,1000.5,1000.2,3.0,5.4,70,86,3.4,80,28.0,28.2,27.8,92,92,0.0,2,34.46,淄博,中国,山东省,淄博市,张店区,54830,36.8167,117.9333,34.4
54831,2022-08-08 07:00:00,992.5,1004.3,992.7,992.5,2.2,4.0,129,91,1.8,103,27.8,27.8,27.2,90,90,0.0,2,33.4,青州,中国,山东省,潍坊市,青州市,54831,36.65,118.5,102.5
54832,2022-08-08 07:00:00,1001.7,1004.5,1001.9,1001.7,2.5,5.0,56,80,1.0,79,28.3,28.3,27.5,90,89,0.0,1,34.94,寿光,中国,山东省,潍坊市,寿光市,54832,36.8631,118.7953,23.4
54833,2022-08-08 07:00:00,1002.4,1004.2,1002.9,1002.4,0.0,0.0,999017,999017,0.0,999017,28.5,28.6,28.0,95,95,0.0,0,36.88,桓台,中国,山东省,淄博市,桓台县,54833,36.9667,118.0833,15.1
54834,2022-08-08 07:00:00,999.0,1004.4,999.3,999.0,2.6,4.4,85,97,2.5,86,27.8,27.9,27.5,91,91,0.0,2,33.61,临淄,中国,山东省,淄博市,临淄区,54834,36.8667,118.2833,46.3
54835,2022-08-08 07:00:00,987.5,1004.5,987.7,987.5,2.7,3.9,23,11,2.4,7,29.1,29.1,27.9,85,85,0.0,2,36.18,临朐,中国,山东省,潍坊市,临朐县,54835,36.4733,118.5606,149.5
54836,2022-08-08 07:00:00,969.9,1003.9,970.2,969.9,2.2,4.0,47,70,1.4,65,33.2,33.2,31.5,69,68,0.0,1,43.67,沂源,中国,山东省,淄博市,沂源县,54836,36.1833,118.1667,305.1
54837,2022-08-08 07:00:00,995.4,1004.4,995.6,995.4,2.4,4.7,354,354,2.2,1,28.7,28.7,27.3,91,91,0.0,2,36.5,昌乐,中国,山东省,潍坊市,昌乐县,54837,36.6797,118.8361,78.8
54841,2022-08-08 07:00:00,1001.8,1004.6,1001.9,1001.8,3.1,4.7,47,30,2.4,26,28.3,28.3,27.8,92,92,0.1,2,35.43,昌邑,中国,山东省,潍坊市,昌邑市,54841,36.8617,119.4181,23.5
54842,2022-08-08 07:00:00,997.1,1004.3,997.2,996.9,4.0,6.8,74,64,2.4,73,29.9,30.2,29.9,82,81,0.0,2,37.92,平度,中国,山东省,青岛市,平度市,54842,36.7833,120.0,62.2
54843,2022-08-08 07:00:00,1001.9,1004.5,1002.1,1001.9,2.7,4.4,65,56,2.5,61,27.9,27.9,27.6,93,93,0.2,2,34.37,潍坊,中国,山东省,潍坊市,寒亭区,54843,36.75,119.2,22.2
54844,2022-08-08 07:00:00,996.8,1004.0,996.9,996.8,2.2,4.1,34,21,1.8,25,29.7,29.7,29.5,83,83,0.0,1,37.57,安丘,中国,山东省,潍坊市,安丘市,54844,36.4167,119.1833,62.7
54846,2022-08-08 07:00:00,998.0,1003.9,998.0,997.6,3.0,5.8,64,63,2.7,65,30.3,30.9,30.2,74,70,0.0,2,36.85,高密,中国,山东省,潍坊市,高密市,54846,36.3853,119.7361,51.5
54848,2022-08-08 07:00:00,991.2,1003.5,991.3,991.0,1.9,3.6,184,224,1.3,177,33.1,33.3,33.0,72,67,0.0,1,44.68,诸城,中国,山东省,潍坊市,诸城市,54848,35.9633,119.4847,109.0
54849,2022-08-08 07:00:00,994.0,1003.6,994.3,993.8,4.5,6.2,51,64,2.5,56,30.5,30.5,29.9,84,75,0.0,2,40.55,胶州,中国,山东省,青岛市,胶州市,54849,36.2167,120.0333,84.4
54851,2022-08-08 07:00:00,995.6,1004.4,996.1,995.5,3.3,5.6,22,9,1.7,24,30.1,31.0,30.1,82,72,0.0,2,38.57,莱西,中国,山东省,青岛市,莱西市,54851,36.9,120.5667,76.9
54852,2022-08-08 07:00:00,999.6,1004.4,1000.0,999.4,2.8,4.3,26,58,1.2,36,30.2,30.2,29.7,82,79,0.0,1,38.89,莱阳,中国,山东省,烟台市,莱阳市,54852,36.9667,120.7167,41.6
54853,2022-08-08 07:00:00,997.4,1003.6,998.2,997.4,3.6,5.0,89,91,3.0,94,30.3,31.1,30.3,89,86,0.0,3,41.55,崂山,中国,山东省,青岛市,李沧区,54853,36.1333,120.5167,54.0
54855,2022-08-08 07:00:00,998.4,1003.9,999.2,998.3,2.5,3.9,272,125,1.7,268,29.8,30.2,28.9,91,91,1.6,1,40.37,即墨,中国,山东省,青岛市,即墨区,54855,36.4,120.3833,47.8
54857,2022-08-08 07:00:00,994.8,1003.5,995.5,994.8,3.5,5.2,150,153,2.0,161,30.3,30.7,30.2,86,84,0.0,2,40.51,青岛,中国,山东省,青岛市,市南区,54857,36.0667,120.3333,76.0
54861,2022-08-08 07:00:00,999.4,1004.7,999.7,999.3,3.4,5.0,15,14,1.9,10,29.6,30.1,29.5,78,72,0.0,2,35.96,乳山,中国,山东省,威海市,乳山市,54861,36.9333,121.5333,45.4
54863,2022-08-08 07:00:00,999.6,1004.4,999.9,999.5,3.6,5.2,57,39,2.9,57,31.3,31.3,31.0,72,71,0.0,2,39.07,海阳,中国,山东省,烟台市,海阳市,54863,36.775,121.1783,40.9
54871,2022-08-08 07:00:00,1003.9,1005.2,1004.1,1003.9,1.7,2.4,117,102,1.3,115,28.8,28.9,28.2,91,91,0.0,1,36.83,石岛,中国,山东省,威海市,荣成市,54871,36.9333,122.4833,9.8
54904,2022-08-08 07:00:00,997.0,1002.8,997.3,997.0,2.1,3.6,45,66,1.0,43,32.3,32.3,31.7,77,77,0.0,1,44.15,鄄城,中国,山东省,菏泽市,鄄城县,54904,35.5833,115.5167,50.1
54905,2022-08-08 07:00:00,997.3,1002.6,997.9,997.3,1.8,3.0,60,168,2.0,30,33.2,33.2,32.2,75,75,0.0,1,46.43,郓城,中国,山东省,菏泽市,郓城县,54905,35.5833,115.9333,46.2
54906,2022-08-08 07:00:00,996.4,1002.2,996.9,996.4,2.2,3.6,39,99,1.7,38,33.0,33.2,32.9,75,72,0.0,2,45.72,菏泽,中国,山东省,菏泽市,牡丹区,54906,35.3167,115.5333,50.7
54907,2022-08-08 07:00:00,998.2,1002.2,998.5,998.2,1.6,2.4,177,211,1.5,183,34.5,34.5,34.2,69,67,0.0,1,48.0,鱼台,中国,山东省,济宁市,鱼台县,54907,34.9833,116.65,34.3
54908,2022-08-08 07:00:00,995.4,1002.0,995.7,995.4,2.2,3.7,124,86,1.8,100,33.5,33.5,33.1,73,72,0.0,2,46.53,东明,中国,山东省,菏泽市,东明县,54908,35.2667,115.1,57.3
54909,2022-08-08 07:00:00,996.4,1002.3,996.8,996.4,1.8,3.6,36,92,1.5,85,33.7,33.9,33.6,72,71,0.0,2,46.74,定陶,中国,山东省,菏泽市,定陶区,54909,35.0833,115.5167,51.5
54910,2022-08-08 07:00:00,997.8,1002.5,998.3,997.8,2.4,3.9,31,82,2.4,68,32.9,33.0,32.0,77,77,0.0,2,46.3,梁山,中国,山东省,济宁市,梁山县,54910,35.8125,116.0533,40.9
54911,2022-08-08 07:00:00,997.6,1002.7,998.1,997.6,1.5,3.2,41,108,1.2,338,33.3,33.3,31.9,75,74,0.0,1,46.79,东平,中国,山东省,泰安市,东平县,54911,35.9333,116.4,44.0
54912,2022-08-08 07:00:00,997.8,1002.6,998.0,997.8,1.9,2.8,340,30,1.6,13,33.6,33.8,32.9,76,74,0.0,2,48.4,汶上,中国,山东省,济宁市,汶上县,54912,35.7667,116.5,41.8
54913,2022-08-08 07:00:00,994.9,1002.6,995.3,994.9,2.6,4.0,116,94,2.3,108,32.8,32.8,32.6,73,72,0.0,2,44.12,宁阳,中国,山东省,泰安市,宁阳县,54913,35.7953,116.8067,67.6
54914,2022-08-08 07:00:00,997.9,1002.6,998.2,997.9,1.8,3.1,152,234,1.8,228,33.3,33.5,33.1,82,80,0.0,2,50.4,巨野,中国,山东省,菏泽市,巨野县,54914,35.4167,116.0833,40.6
54915,2022-08-08 07:00:00,997.9,1001.8,998.2,997.9,2.0,3.8,172,27,1.4,141,34.0,34.2,33.5,67,66,0.0,1,45.31,济宁,中国,山东省,济宁市,任城区,54915,35.4411,116.6014,33.3
54916,2022-08-08 07:00:00,997.0,1002.0,997.2,997.0,2.7,4.5,172,152,2.3,154,33.3,33.5,33.3,75,70,0.0,2,46.79,兖州,中国,山东省,济宁市,兖州区,54916,35.5333,116.8333,43.3
54917,2022-08-08 07:00:00,998.2,1002.4,998.5,998.2,2.9,2.1,158,188,0.4,162,33.6,33.6,30.7,73,70,0.0,1,46.88,金乡,中国,山东省,济宁市,金乡县,54917,35.1333,116.3333,35.8
54918,2022-08-08 07:00:00,995.6,1002.7,995.9,995.6,2.2,4.0,133,169,1.3,105,34.0,34.1,33.8,66,66,0.0,1,44.84,曲阜,中国,山东省,济宁市,曲阜市,54918,35.6,116.9733,62.3
54919,2022-08-08 07:00:00,992.7,1002.9,992.9,992.7,2.3,3.7,187,185,2.3,187,33.4,33.6,33.4,68,66,0.0,2,43.86,邹城,中国,山东省,济宁市,邹城市,54919,35.3667,116.9833,89.8
54920,2022-08-08 07:00:00,990.5,1002.9,990.7,990.5,2.2,3.8,135,157,1.8,132,33.1,33.3,33.0,66,65,0.0,2,42.1,泗水,中国,山东省,济宁市,泗水县,54920,35.65,117.2833,110.4
54921,2022-08-08 07:00:00,998.0,1002.3,998.5,998.0,1.7,2.5,135,180,0.9,121,34.0,34.0,33.5,73,72,0.0,1,48.32,嘉祥,中国,山东省,济宁市,嘉祥县,54921,35.4333,116.2833,37.1
54922,2022-08-08 07:00:00,980.2,1003.3,980.4,980.2,1.3,2.4,99,119,1.0,94,32.8,33.1,32.5,66,64,0.0,1,41.22,新泰,中国,山东省,泰安市,新泰市,54922,35.8667,117.75,206.0
54923,2022-08-08 07:00:00,971.4,1003.3,971.5,971.4,2.4,3.2,55,71,2.3,57,32.2,32.7,32.2,72,67,0.0,2,41.77,蒙阴,中国,山东省,临沂市,蒙阴县,54923,35.7333,117.95,286.5
54925,2022-08-08 07:00:00,985.1,1003.2,985.2,984.9,1.8,2.4,129,149,1.7,134,33.0,33.1,32.9,81,77,0.0,2,48.65,平邑,中国,山东省,临沂市,平邑县,54925,35.5,117.6833,161.2
54927,2022-08-08 07:00:00,994.1,1002.6,994.2,994.1,2.5,4.0,166,154,1.5,169,33.1,33.3,33.0,69,68,0.0,2,43.36,滕州,中国,山东省,枣庄市,滕州市,54927,35.1,117.2,74.9
54929,2022-08-08 07:00:00,985.0,1003.3,985.0,984.7,4.5,6.3,214,238,3.0,185,33.4,33.8,33.4,64,61,0.0,3,42.15,费县,中国,山东省,临沂市,费县,54929,35.2667,117.9667,121.2
54932,2022-08-08 07:00:00,982.3,1003.4,982.3,982.1,2.7,4.3,167,199,2.1,183,33.2,33.3,33.1,64,64,0.0,2,41.58,沂水,中国,山东省,临沂市,沂水县,54932,35.7667,118.65,186.7
54935,2022-08-08 07:00:00,989.8,1003.3,989.8,989.7,2.5,3.9,202,229,1.5,195,34.1,34.4,34.1,62,60,0.0,1,43.32,沂南,中国,山东省,临沂市,沂南县,54935,35.5333,118.4333,119.4
54936,2022-08-08 07:00:00,991.3,1003.3,991.3,991.1,3.1,4.9,209,206,2.1,206,34.4,34.7,34.4,57,55,0.0,2,42.01,莒县,中国,山东省,日照市,莒县,54936,35.5667,118.8333,107.4
54938,2022-08-08 07:00:00,989.1,1003.1,989.4,989.1,2.9,4.1,233,236,3.3,229,34.0,34.1,33.9,64,63,0.0,2,43.92,临沂,中国,山东省,临沂市,兰山区,54938,35.25,118.4167,124.0
54939,2022-08-08 07:00:00,990.4,1003.2,990.8,990.4,2.7,4.3,164,191,2.2,159,34.3,34.5,34.2,64,62,0.0,2,44.84,莒南,中国,山东省,临沂市,莒南县,54939,35.1667,118.8167,113.8
54940,2022-08-08 07:00:00,986.8,1003.4,986.9,986.7,2.5,4.2,239,225,2.0,238,33.7,34.1,33.6,65,63,0.0,2,43.46,五莲,中国,山东省,日照市,五莲县,54940,35.75,119.2,148.2
54943,2022-08-08 07:00:00,1002.7,1003.5,1002.9,1002.6,4.4,5.4,167,162,3.8,167,30.4,30.6,30.3,97,96,0.0,3,44.92,黄岛,中国,山东省,青岛市,黄岛区,54943,35.8333,120.0333,5.7
54945,2022-08-08 07:00:00,996.3,1003.6,996.4,996.2,3.8,5.6,169,170,2.3,174,33.6,33.7,33.4,71,69,0.0,2,45.9,日照,中国,山东省,日照市,东港区,54945,35.4667,119.55,64.4
58002,2022-08-08 07:00:00,996.5,1002.1,996.9,996.5,2.2,3.4,119,68,1.5,117,34.4,34.4,34.3,75,71,0.0,2,50.93,曹县,中国,山东省,菏泽市,曹县,58002,34.85,115.5833,49.0
58003,2022-08-08 07:00:00,997.1,1002.3,997.5,997.1,1.9,3.2,207,156,1.6,154,34.3,34.4,34.2,66,65,0.0,1,45.8,成武,中国,山东省,菏泽市,成武县,58003,34.95,115.8833,45.4
58011,2022-08-08 07:00:00,997.0,1002.3,997.3,997.0,2.1,3.6,128,131,1.9,162,34.8,34.8,34.6,63,59,0.0,2,45.91,单县,中国,山东省,菏泽市,单县,58011,34.8,116.0667,46.2
58020,2022-08-08 07:00:00,998.5,1002.6,998.9,998.5,2.1,3.1,210,207,1.1,190,34.4,34.5,34.0,65,63,0.0,1,45.63,微山,中国,山东省,济宁市,微山县,58020,34.7681,117.1403,35.5
58021,2022-08-08 07:00:00,993.5,1002.6,993.8,993.5,2.5,3.9,231,258,1.6,203,34.4,34.5,34.1,58,57,0.0,2,42.43,薛城,中国,山东省,枣庄市,薛城区,58021,34.7833,117.2833,80.5
58022,2022-08-08 07:00:00,993.5,1003.0,993.7,993.5,2.7,4.0,208,224,2.1,205,34.8,35.1,34.8,58,57,0.0,2,43.54,峄城,中国,山东省,枣庄市,峄城区,58022,34.7667,117.4833,83.4
58024,2022-08-08 07:00:00,994.2,1003.0,994.3,994.2,3.1,4.8,193,244,2.4,187,35.3,35.5,35.1,55,53,0.0,2,43.56,枣庄,中国,山东省,枣庄市,市中区,58024,34.8667,117.5833,77.7
58025,2022-08-08 07:00:00,999.4,1002.8,999.7,999.4,2.0,3.4,224,219,1.6,204,35.9,36.2,35.9,61,57,0.0,2,48.37,台儿庄,中国,山东省,枣庄市,台儿庄区,58025,34.6,117.7167,29.3
58030,2022-08-08 07:00:00,997.7,1002.8,998.1,997.7,3.0,5.0,214,194,1.9,205,35.7,35.8,35.5,59,58,0.0,2,46.66,兰陵,中国,山东省,临沂市,兰陵县,58030,34.8833,118.0167,44.5
58032,2022-08-08 07:00:00,993.0,1003.2,993.3,993.0,3.1,4.8,227,241,1.9,204,35.5,35.9,35.5,54,52,0.0,2,43.64,临沭,中国,山东省,临沂市,临沭县,58032,34.95,118.65,90.1
53688,2022-08-08 07:00:00,995.7,1007.3,995.7,995.6,4.8,8.4,52,20,2.0,48,25.3,25.3,24.1,74,72,0.0,2,25.82,行唐,中国,河北省,石家庄市,行唐县,53688,38.4186,114.5464,100.3
53689,2022-08-08 07:00:00,1001.6,1006.6,1001.7,1001.0,2.7,6.4,51,42,1.0,46,25.0,26.4,25.0,90,76,2.1,1,25.91,晋州,中国,河北省,石家庄市,晋州市,53689,38.0167,115.0667,42.4
53691,2022-08-08 07:00:00,999.0,1007.3,999.1,998.8,2.0,5.6,6,359,1.5,14,24.7,24.8,24.6,84,83,0.1,1,25.42,正定,中国,河北省,石家庄市,正定县,53691,38.15,114.5667,71.0
53695,2022-08-08 07:00:00,999.4,1006.9,999.6,999.3,5.1,7.7,27,31,3.7,34,26.0,26.0,24.8,75,74,0.0,3,26.61,新乐,中国,河北省,石家庄市,新乐市,53695,38.35,114.6833,70.8
53697,2022-08-08 07:00:00,1000.5,1006.8,1000.6,1000.1,2.0,4.9,32,337,0.6,31,25.2,26.1,25.0,92,74,2.2,1,26.18,藁城,中国,河北省,石家庄市,藁城区,53697,38.0333,114.8333,53.5
53699,2022-08-08 07:00:00,1001.0,1006.7,1001.1,1000.9,5.1,7.3,24,39,4.5,22,25.6,25.6,25.3,82,82,0.0,3,26.36,无极,中国,河北省,石家庄市,无极县,53699,38.1833,114.95,45.4
53773,2022-08-08 07:00:00,996.0,1003.6,996.3,996.0,3.2,4.3,46,32,2.5,41,29.0,29.1,28.4,93,93,0.0,2,38.09,临漳,中国,河北省,邯郸市,临漳县,53773,36.2986,114.595,65.5
53784,2022-08-08 07:00:00,1001.7,1006.2,1001.8,1001.5,3.3,6.9,40,26,1.3,35,25.2,25.5,25.2,89,83,0.3,1,26.1,赵县,中国,河北省,石家庄市,赵县,53784,37.75,114.7833,38.5
53785,2022-08-08 07:00:00,1001.6,1005.8,1001.7,1001.1,4.5,7.7,11,20,4.3,35,24.2,25.0,24.2,98,98,1.8,3,25.23,柏乡,中国,河北省,邢台市,柏乡县,53785,37.5167,114.6667,35.0
53789,2022-08-08 07:00:00,1000.4,1006.6,1000.5,1000.3,1.3,3.1,5,29,1.2,29,24.9,26.1,24.9,88,83,2.2,1,25.74,栾城,中国,河北省,石家庄市,栾城区,53789,37.8833,114.6333,52.9
53790,2022-08-08 07:00:00,1000.6,1005.8,1000.7,1000.4,5.3,8.7,26,18,4.1,34,24.4,24.9,24.4,94,90,2.2,3,25.35,高邑,中国,河北省,石家庄市,高邑县,53790,37.6347,114.6078,44.5
53794,2022-08-08 07:00:00,1001.9,1005.6,1002.0,1001.4,5.7,9.0,10,9,5.1,10,24.6,25.0,24.6,93,93,0.7,4,25.54,隆尧,中国,河北省,邢台市,隆尧县,53794,37.3903,114.7842,31.0
53796,2022-08-08 07:00:00,1002.3,1005.9,1002.4,1001.9,4.2,8.5,56,27,3.7,46,25.3,25.4,25.1,89,88,0.0,3,26.21,宁晋,中国,河北省,邢台市,宁晋县,53796,37.6178,114.8914,30.6
53799,2022-08-08 07:00:00,1001.0,1004.1,1001.2,1000.8,5.4,10.7,39,33,5.5,39,24.9,25.5,24.9,99,99,4.7,3,26.03,巨鹿,中国,河北省,邢台市,巨鹿县,53799,37.2378,114.9989,25.9
53883,2022-08-08 07:00:00,1000.2,1004.5,1000.2,999.8,5.5,10.1,23,30,3.9,27,24.6,26.0,24.6,100,100,36.7,3,25.73,任县,中国,河北省,邢台市,任县,53883,37.1333,114.7,36.5
53891,2022-08-08 07:00:00,999.0,1004.4,999.0,998.5,6.2,9.1,341,348,6.7,337,25.4,26.1,25.4,97,97,11.7,4,26.53,南和,中国,河北省,邢台市,南和县,53891,37.0167,114.6833,43.0
53893,2022-08-08 07:00:00,999.6,1004.1,999.7,999.4,2.1,2.7,182,271,1.2,104,26.9,27.1,26.9,100,100,1.7,1,32.58,曲周,中国,河北省,邯郸市,曲周县,53893,36.7889,115.005,37.9
53896,2022-08-08 07:00:00,997.7,1003.7,998.1,997.6,1.3,2.9,54,42,1.4,30,28.4,28.5,28.4,92,91,0.0,1,35.76,魏县,中国,河北省,邯郸市,魏县,53896,36.3278,114.9494,51.6
53899,2022-08-08 07:00:00,998.4,1004.0,998.6,998.3,1.2,2.5,48,348,0.9,34,27.7,27.9,27.7,93,90,0.2,1,33.74,广平,中国,河北省,邯郸市,广平县,53899,36.4833,114.9667,48.5
53980,2022-08-08 07:00:00,998.1,1003.9,998.4,998.1,1.7,2.8,38,36,0.6,27,28.0,28.0,27.9,91,90,0.0,1,34.23,肥乡,中国,河北省,邯郸市,肥乡区,53980,36.55,114.8,50.2
53996,2022-08-08 07:00:00,997.3,1004.0,997.5,997.3,2.3,3.8,38,35,1.6,16,28.7,28.8,28.5,86,85,0.0,2,35.2,成安,中国,河北省,邯郸市,成安县,53996,36.45,114.65,57.9
54604,2022-08-08 07:00:00,1003.0,1006.7,1003.1,1002.8,3.7,6.9,80,78,2.5,52,27.2,27.7,27.2,65,62,0.0,2,28.75,安国,中国,河北省,保定市,安国市,54604,38.4047,115.2919,31.0
54606,2022-08-08 07:00:00,1004.3,1006.5,1004.3,1004.1,6.7,11.6,77,67,3.9,70,26.8,27.5,26.8,62,61,0.0,3,27.96,饶阳,中国,河北省,衡水市,饶阳县,54606,38.2231,115.7431,17.9
54608,2022-08-08 07:00:00,1003.2,1006.2,1003.2,1002.8,3.5,7.5,48,57,3.5,57,26.6,26.9,26.6,72,72,0.0,3,28.33,深州,中国,河北省,衡水市,深州市,54608,37.9903,115.5442,25.5
54609,2022-08-08 07:00:00,1004.1,1006.8,1004.1,1003.9,6.9,11.3,63,65,4.9,64,27.4,28.0,27.4,62,58,0.0,3,28.78,安平,中国,河北省,衡水市,安平县,54609,38.2306,115.5869,22.4
54614,2022-08-08 07:00:00,1005.0,1006.4,1005.6,1005.0,2.9,7.6,27,66,2.3,71,28.8,29.1,28.0,57,56,0.0,2,30.28,河间,中国,河北省,沧州市,河间市,54614,38.4197,116.0561,10.9
54616,2022-08-08 07:00:00,1005.7,1006.8,1005.9,1005.5,4.9,9.0,64,72,3.7,66,27.5,27.5,27.3,57,57,0.0,3,28.47,沧州,中国,河北省,沧州市,运河区,54616,38.35,116.85,8.0
54617,2022-08-08 07:00:00,1004.6,1006.3,1005.0,1004.6,6.1,10.0,80,85,4.2,77,27.4,27.8,27.4,62,60,0.0,3,28.78,献县,中国,河北省,沧州市,献县,54617,38.205,116.1706,13.3
54618,2022-08-08 07:00:00,1004.7,1006.3,1004.9,1004.4,5.7,9.2,56,61,4.2,62,27.0,27.3,27.0,64,62,0.0,3,28.38,泊头,中国,河北省,沧州市,泊头市,54618,38.0833,116.55,13.2
54620,2022-08-08 07:00:00,1004.2,1006.7,1004.4,1004.0,4.4,8.5,77,80,2.0,83,28.0,28.5,27.8,66,60,0.0,2,30.15,蠡县,中国,河北省,保定市,蠡县,54620,38.4833,115.5667,18.5
54621,2022-08-08 07:00:00,1002.0,1006.5,1002.1,1001.9,3.9,7.2,79,84,2.9,71,27.1,27.2,27.0,66,64,0.0,3,28.68,深泽,中国,河北省,石家庄市,深泽县,54621,38.1833,115.1833,38.1
54624,2022-08-08 07:00:00,1006.2,1006.9,1006.3,1006.0,7.9,13.3,72,68,5.4,70,27.1,27.6,27.0,61,56,0.0,3,28.28,黄骅,中国,河北省,沧州市,黄骅市,54624,38.4081,117.3214,4.5
54626,2022-08-08 07:00:00,1005.1,1006.8,1005.6,1004.8,4.1,8.7,38,51,4.3,52,28.6,28.6,28.1,55,55,0.0,3,29.73,肃宁,中国,河北省,沧州市,肃宁县,54626,38.4167,115.8167,13.9
54627,2022-08-08 07:00:00,1005.0,1006.1,1005.2,1005.0,7.6,11.2,64,66,4.8,75,26.0,26.7,26.0,72,70,0.0,4,26.54,盐山,中国,河北省,沧州市,盐山县,54627,38.0333,117.2333,8.2
54628,2022-08-08 07:00:00,1005.5,1006.2,1005.7,1005.5,8.8,13.4,63,77,6.7,64,25.9,26.8,25.9,70,69,0.0,4,26.37,海兴,中国,河北省,沧州市,海兴县,54628,38.0839,117.4136,5.0
54631,2022-08-08 07:00:00,999.8,1003.5,1000.0,999.8,5.0,8.2,52,51,5.7,54,26.3,26.7,26.3,96,96,5.1,3,29.16,广宗,中国,河北省,邢台市,广宗县,54631,37.0939,115.1314,31.4
54632,2022-08-08 07:00:00,999.7,1003.7,999.8,999.4,4.3,7.7,88,100,1.5,99,26.8,26.8,26.8,99,99,3.4,1,32.08,平乡,中国,河北省,邢台市,平乡县,54632,37.0667,115.0333,34.0
54633,2022-08-08 07:00:00,1002.0,1005.1,1002.1,1001.7,5.1,8.6,37,39,2.6,57,25.2,25.2,24.9,100,100,0.2,3,26.39,新河,中国,河北省,邢台市,新河县,54633,37.5081,115.2706,26.1
54640,2022-08-08 07:00:00,999.9,1004.2,1000.1,999.6,1.6,2.4,234,148,0.5,258,26.9,27.1,26.9,94,93,7.4,1,31.51,鸡泽,中国,河北省,邯郸市,鸡泽县,54640,36.8903,114.8728,36.6
54644,2022-08-08 07:00:00,1004.9,1006.2,1005.1,1004.9,6.1,8.6,60,57,4.7,64,26.3,27.0,26.1,72,69,0.0,3,27.84,孟村,中国,河北省,沧州市,孟村回族自治县,54644,38.0555,117.1239,10.5
54700,2022-08-08 07:00:00,1004.2,1006.2,1004.2,1003.9,6.0,10.0,65,60,4.9,64,27.1,27.7,27.1,66,66,0.0,3,28.68,武强,中国,河北省,衡水市,武强县,54700,38.0333,115.9333,16.2
54701,2022-08-08 07:00:00,1002.1,1006.3,1002.2,1001.4,1.8,4.5,65,74,1.3,65,25.6,26.0,25.6,81,79,0.8,1,26.33,辛集,中国,河北省,石家庄市,辛集市,54701,37.9333,115.2,35.9
54702,2022-08-08 07:00:00,1003.4,1005.9,1003.4,1002.7,2.9,5.4,34,32,2.4,65,25.7,25.8,25.7,84,84,0.1,2,26.52,衡水,中国,河北省,衡水市,桃城区,54702,37.7333,115.7,20.7
54703,2022-08-08 07:00:00,1003.4,1005.9,1003.4,1003.1,4.5,7.4,29,28,3.3,29,24.9,25.5,24.9,93,89,1.2,2,25.87,武邑,中国,河北省,衡水市,武邑县,54703,37.7858,115.9044,20.7
54704,2022-08-08 07:00:00,1002.4,1005.4,1002.4,1001.9,5.7,9.3,56,46,4.0,63,25.4,25.4,25.0,95,95,0.3,3,26.48,冀州,中国,河北省,衡水市,冀州区,54704,37.5122,115.5614,24.8
54705,2022-08-08 07:00:00,1001.7,1005.0,1001.8,1001.5,3.2,6.0,61,56,3.2,54,25.3,25.3,25.1,97,97,0.3,2,26.42,南宫,中国,河北省,邢台市,南宫市,54705,37.3667,115.3833,27.4
54706,2022-08-08 07:00:00,1000.5,1003.9,1000.7,1000.5,3.1,4.8,67,69,2.0,72,27.2,27.2,27.2,96,95,0.5,2,32.79,清河,中国,河北省,邢台市,清河县,54706,37.0833,115.6667,31.5
54707,2022-08-08 07:00:00,1001.8,1005.1,1002.0,1001.7,3.9,7.0,61,56,2.7,56,26.0,26.5,25.9,96,95,0.3,2,28.26,故城,中国,河北省,衡水市,故城县,54707,37.35,115.9833,27.4
54708,2022-08-08 07:00:00,1002.4,1005.2,1002.4,1002.1,4.2,8.7,71,54,3.0,57,25.9,25.9,25.4,97,96,0.0,2,28.0,枣强,中国,河北省,衡水市,枣强县,54708,37.5,115.7333,23.6
54710,2022-08-08 07:00:00,1004.0,1005.9,1004.0,1003.6,3.5,7.4,52,49,3.2,64,26.3,26.5,26.1,89,87,0.0,2,28.76,阜城,中国,河北省,衡水市,阜城县,54710,37.8447,116.1506,15.8
54711,2022-08-08 07:00:00,1003.5,1005.3,1003.6,1003.2,4.3,9.9,71,58,3.3,55,26.3,26.5,26.2,100,100,0.0,3,29.41,景县,中国,河北省,衡水市,景县,54711,37.6686,116.265,15.0
54713,2022-08-08 07:00:00,1004.1,1005.9,1004.2,1003.9,5.4,9.4,69,62,4.1,63,27.1,27.4,27.0,75,73,0.0,3,29.48,东光,中国,河北省,沧州市,东光县,54713,37.8833,116.5333,14.4
54717,2022-08-08 07:00:00,1003.6,1005.7,1003.6,1003.2,4.4,7.6,52,59,4.2,56,26.5,26.6,26.3,84,83,0.1,3,28.93,吴桥,中国,河北省,沧州市,吴桥县,54717,37.6333,116.4,17.1
54719,2022-08-08 07:00:00,1004.7,1006.1,1005.0,1004.5,5.6,11.6,57,61,6.3,70,26.2,26.5,25.8,71,71,0.0,3,27.63,南皮,中国,河北省,沧州市,南皮县,54719,38.0119,116.6822,10.8
54800,2022-08-08 07:00:00,1000.0,1003.9,1000.0,999.8,3.9,5.7,68,68,2.3,69,27.0,27.1,27.0,100,100,2.8,2,32.91,威县,中国,河北省,邢台市,威县,54800,37.0,115.25,33.3
54801,2022-08-08 07:00:00,999.5,1003.7,999.9,999.5,2.7,3.7,99,67,2.4,76,27.6,27.6,27.6,99,99,1.4,2,34.73,临西,中国,河北省,邢台市,临西县,54801,36.85,115.4833,35.3
54804,2022-08-08 07:00:00,998.5,1003.8,998.7,998.4,1.5,3.1,53,7,1.1,36,28.5,28.6,28.5,90,87,0.0,1,35.58,大名,中国,河北省,邯郸市,大名县,54804,36.3042,115.1814,45.3
54809,2022-08-08 07:00:00,998.7,1003.5,999.1,998.7,0.5,1.7,50,999017,0.1,70,27.6,27.7,27.6,96,94,0.4,0,34.07,馆陶,中国,河北省,邯郸市,馆陶县,54809,36.55,115.2833,41.3
54820,2022-08-08 07:00:00,999.1,1003.7,999.4,999.0,3.2,5.2,91,90,1.6,88,26.9,27.0,26.9,99,98,2.3,2,32.4,邱县,中国,河北省,邯郸市,邱县,54820,36.81,115.2078,39.0
53992,2022-08-08 07:00:00,996.2,1002.9,996.4,996.1,3.2,5.2,53,356,2.8,4,29.5,29.6,29.3,85,85,0.0,2,37.47,浚县,中国,河南省,鹤壁市,浚县,53992,35.6589,114.5183,58.2
53993,2022-08-08 07:00:00,997.2,1003.2,997.5,997.2,2.6,4.0,11,50,1.5,21,30.3,30.8,30.3,78,76,0.0,2,38.0,内黄,中国,河南省,安阳市,内黄县,53993,35.9425,114.91,51.6
53998,2022-08-08 07:00:00,995.3,1002.3,995.3,995.1,1.7,3.9,59,75,1.1,76,33.1,33.5,33.1,83,80,0.0,1,50.11,长垣,中国,河南省,新乡市,长垣县,53998,35.1933,114.6547,61.6
54817,2022-08-08 07:00:00,998.0,1003.0,998.2,997.9,2.2,3.7,54,59,1.9,47,31.8,31.8,30.7,92,91,0.0,2,49.03,台前,中国,河南省,濮阳市,台前县,54817,35.9842,115.8619,42.1
54900,2022-08-08 07:00:00,996.9,1003.1,997.1,996.8,2.6,4.2,77,49,1.7,49,31.4,31.4,31.2,71,69,0.0,2,39.02,濮阳,中国,河南省,濮阳市,濮阳县,54900,35.6967,115.0317,53.7
54901,2022-08-08 07:00:00,997.6,1003.0,997.9,997.6,1.7,2.3,23,354,1.7,22,29.7,30.0,29.5,82,80,0.0,2,37.29,南乐,中国,河南省,濮阳市,南乐县,54901,36.0581,115.2414,46.6
54902,2022-08-08 07:00:00,997.4,1003.1,997.8,997.3,2.3,3.5,49,357,0.6,33,30.1,30.2,30.0,81,78,0.0,1,38.27,清丰,中国,河南省,濮阳市,清丰县,54902,35.9419,115.1428,49.3
54903,2022-08-08 07:00:00,997.7,1003.0,998.0,997.6,2.0,3.8,346,340,1.3,16,31.5,31.5,30.2,74,72,0.0,1,40.35,范县,中国,河南省,濮阳市,范县,54903,35.8492,115.4761,46.0
57093,2022-08-08 07:00:00,993.5,1001.5,993.9,993.5,3.1,4.4,70,99,2.9,77,33.8,34.0,33.7,74,73,0.0,2,48.11,兰考,中国,河南省,开封市,兰考县,57093,34.8611,114.7989,70.8
57096,2022-08-08 07:00:00,994.7,1001.5,995.0,994.7,3.3,4.8,101,108,3.3,115,34.7,34.7,34.6,70,67,0.0,2,49.25,杞县,中国,河南省,开封市,杞县,57096,34.5406,114.7819,59.7
57099,2022-08-08 07:00:00,995.6,1001.6,996.0,995.5,2.2,4.8,129,143,1.5,133,36.3,36.8,36.3,58,56,0.0,2,47.98,太康,中国,河南省,周口市,太康县,57099,34.0744,114.8497,52.6
58001,2022-08-08 07:00:00,995.1,1001.5,995.4,995.1,2.8,4.2,155,135,2.5,141,34.8,35.2,34.8,66,63,0.0,2,47.44,睢县,中国,河南省,商丘市,睢县,58001,34.4769,115.0325,56.1
58004,2022-08-08 07:00:00,994.7,1001.7,995.1,994.7,3.0,4.2,138,130,2.4,128,34.2,34.4,34.0,71,69,0.0,2,47.99,民权,中国,河南省,商丘市,民权县,58004,34.6194,115.1944,61.6
58005,2022-08-08 07:00:00,996.1,1001.9,996.4,996.1,3.0,4.6,198,189,2.5,178,34.3,34.8,34.3,69,65,0.0,2,47.3,商丘,中国,河南省,商丘市,梁园区,58005,34.4372,115.5353,50.8
58006,2022-08-08 07:00:00,996.8,1002.2,997.0,996.8,2.9,4.4,158,154,2.4,141,34.4,34.5,34.2,67,65,0.0,2,46.62,虞城,中国,河南省,商丘市,虞城县,58006,34.3903,115.8794,46.3
58007,2022-08-08 07:00:00,996.4,1001.6,996.7,996.3,2.9,4.4,143,154,2.2,153,35.2,35.3,34.8,69,65,0.0,2,50.5,柘城,中国,河南省,商丘市,柘城县,58007,34.0983,115.3592,45.7
58008,2022-08-08 07:00:00,995.4,1001.8,995.7,995.4,2.8,5.3,138,136,1.7,128,34.4,34.4,34.1,71,67,0.0,2,48.71,宁陵,中国,河南省,商丘市,宁陵县,58008,34.4867,115.3156,55.8
58017,2022-08-08 07:00:00,997.2,1002.1,997.7,997.2,2.6,4.2,149,148,2.6,135,34.5,34.5,34.1,67,67,0.0,2,46.96,夏邑,中国,河南省,商丘市,夏邑县,58017,34.2831,116.1508,42.6
